[{"name":"Brownstoner Media","category_code":"web","description":null,"address1":"408 Grand Avenue","address2":"","zip_code":"11238","city":"Brooklyn","state_code":"NY","country_code":"USA","location":{"type":"Point","coordinates":[-73.961981,40.684257]}},{"name":"A1-4 Electronics","category_code":"hardware","description":"","address1":"581 Flushing Ave.","address2":"","zip_code":"11206","city":"Brooklyn","state_code":"NY","country_code":"USA","location":{"type":"Point","coordinates":[-73.9514066,40.6996318]}},{"name":"College Toolkit","category_code":"web","description":"Headquarters","address1":"1250 Hancock St.","address2":"Suite 703N","zip_code":"02169","city":"Quincy","state_code":"MA","country_code":"USA","location":{"type":"Point","coordinates":[-73.964687,40.673165]}},{"name":"Spurd, Inc","category_code":"web","description":"Spurd","address1":"","address2":"","zip_code":"","city":"Brooklyn","state_code":"NY","country_code":"USA","location":{"type":"Point","coordinates":[-73.971043,40.675234]}},{"name":"iNetGiant","category_code":"web","description":"New York","address1":"","address2":"","zip_code":"","city":"Brooklyn","state_code":"NY","country_code":"USA","location":{"type":"Point","coordinates":[-73.971043,40.675234]}},{"name":"Etsy","category_code":"ecommerce","description":"","address1":"55 Washington St.","address2":"5th Floor","zip_code":"11201","city":"Brooklyn","state_code":"NY","country_code":"USA","location":{"type":"Point","coordinates":[-73.983268,40.694731]}},{"name":"ArtistForce","category_code":"software","description":"New York Office","address1":"260 Water Street","address2":"","zip_code":"11201","city":"Brooklyn","state_code":"NY","country_code":"USA","location":{"type":"Point","coordinates":[-73.983471,40.70299]}},{"name":"Kidos","category_code":"games_video","description":"Corporate Headquarters","address1":"153 Roebling St.","address2":"","zip_code":"11211","city":"Brooklyn","state_code":"NY","country_code":"USA","location":{"type":"Point","coordinates":[-73.957854,40.714056]}},{"name":"Kidos","category_code":"games_video","description":"Corporate Headquarters","address1":"153 Roebling St.","address2":"","zip_code":"11211","city":"Brooklyn","state_code":"NY","country_code":"USA","location":{"type":"Point","coordinates":[-73.957854,40.714056]}},{"name":"Disrupto","category_code":"web","description":"","address1":"28 w. 27th St.","address2":"10F","zip_code":"10001","city":"New York","state_code":"NY","country_code":"USA","location":{"type":"Point","coordinates":[-73.9565551,40.714279]}},{"name":"YourLocal","category_code":null,"description":"","address1":"20 Jay St., Ste. 207","address2":"","zip_code":"11201","city":"Brooklyn","state_code":"NY","country_code":"USA","location":{"type":"Point","coordinates":[-73.986572,40.704382]}},{"name":"TuneCore","category_code":"games_video","description":"","address1":"45 Main Street","address2":"Suite 705","zip_code":"11201","city":"Brooklyn","state_code":"NY","country_code":"USA","location":{"type":"Point","coordinates":[-73.986572,40.704382]}},{"name":"Pond5","category_code":"ecommerce","description":"Pond5","address1":"155 Water Street","address2":"Floor 6","zip_code":"11201","city":"Brooklyn","state_code":"NY","country_code":"USA","location":{"type":"Point","coordinates":[-73.9878525,40.7032884]}},{"name":"Pond5","category_code":"ecommerce","description":"Pond5","address1":"155 Water Street","address2":"Floor 6","zip_code":"11201","city":"Brooklyn","state_code":"NY","country_code":"USA","location":{"type":"Point","coordinates":[-73.9878525,40.7032884]}},{"name":"Pontiflex","category_code":"advertising","description":"","address1":"45 Main Street","address2":"Suite 1101","zip_code":"11201","city":"Brooklyn","state_code":"NY","country_code":"USA","location":{"type":"Point","coordinates":[-73.989613,40.702692]}},{"name":"gliider","category_code":"web","description":"","address1":"55 Washington Street","address2":"Suite 457","zip_code":"11201","city":"Brooklyn","state_code":"NY","country_code":"USA","location":{"type":"Point","coordinates":[-73.989613,40.702692]}},{"name":"Freeverse","category_code":"software","description":null,"address1":"45 Main St.","address2":"Suite #506","zip_code":"11201","city":"Brooklyn","state_code":"NY","country_code":"USA","location":{"type":"Point","coordinates":[-73.990681,40.702847]}},{"name":"Huge","category_code":"consulting","description":"Brooklyn (headquarters)","address1":"45 Main Street","address2":"Suite 220","zip_code":"11201","city":"Brooklyn","state_code":"NY","country_code":"USA","location":{"type":"Point","coordinates":[-73.9906813,40.7028474]}},{"name":"OwnEnergy","category_code":"cleantech","description":"HQ","address1":"45 Main Street, Suite 538","address2":"","zip_code":"11201","city":"Brooklyn","state_code":"NY","country_code":"USA","location":{"type":"Point","coordinates":[-73.9906813,40.7028474]}},{"name":"Discount Sports Tickets","category_code":"web","description":"New York City Office","address1":"55 Washington St. Suite 301","address2":"","zip_code":"11205","city":"Brooklyn","state_code":"NY","country_code":"USA","location":{"type":"Point","coordinates":[-73.9906813,40.7028474]}},{"name":"StubOrder","category_code":"ecommerce","description":null,"address1":"100 Maple Street","address2":"","zip_code":"10004","city":"New York","state_code":"NY","country_code":"USA","location":{"type":"Point","coordinates":[-73.957626,40.660393]}},{"name":"Mad Mimi","category_code":"web","description":"","address1":"172 Fifth Avenue","address2":"Suite 131","zip_code":"11215","city":"Brooklyn","state_code":"NY","country_code":"USA","location":{"type":"Point","coordinates":[-73.980306,40.66509]}},{"name":"Please Fix the iPhone","category_code":"mobile","description":"","address1":"102 N6th Street","address2":"","zip_code":"11211","city":"Brooklyn","state_code":"NY","country_code":"USA","location":{"type":"Point","coordinates":[-73.9603077,40.7185306]}},{"name":"Propertyshark","category_code":"ecommerce","description":"","address1":"181 N. 11th Street, Suite 307","address2":"","zip_code":"11211","city":"New York City","state_code":"NY","country_code":"USA","location":{"type":"Point","coordinates":[-73.954391,40.719436]}},{"name":"Propertyshark","category_code":"ecommerce","description":"","address1":"181 N. 11th Street, Suite 307","address2":"","zip_code":"11211","city":"New York City","state_code":"NY","country_code":"USA","location":{"type":"Point","coordinates":[-73.954391,40.719436]}},{"name":"Simpy","category_code":"web","description":"","address1":"","address2":"","zip_code":"11215","city":"Brooklyn","state_code":"NY","country_code":"USA","location":{"type":"Point","coordinates":[-73.9800645,40.6632194]}},{"name":"whistleBox","category_code":"games_video","description":"","address1":"80 North 7th Street","address2":"","zip_code":"11211","city":"Brooklyn","state_code":"NY","country_code":"USA","location":{"type":"Point","coordinates":[-73.9607545,40.7197125]}},{"name":"VBS TV","category_code":"games_video","description":"HeadQuarters","address1":"97 North Tenth Street","address2":"Suite 204","zip_code":"11211","city":"Brooklyn","state_code":"NY","country_code":"USA","location":{"type":"Point","coordinates":[-73.957968,40.720764]}},{"name":"Global Relay","category_code":"enterprise","description":"Global Relay","address1":"286 Madison Avenue, 7th Floor","address2":"","zip_code":"10016","city":"New York","state_code":"NY","country_code":"USA","location":{"type":"Point","coordinates":[-73.982629,40.662332]}},{"name":"Cookstr","category_code":"web","description":"","address1":"86 Chambers Street","address2":"Suite 704","zip_code":"10007","city":"New York","state_code":"NY","country_code":"USA","location":{"type":"Point","coordinates":[-74.001724,40.707268]}},{"name":"GigMaven","category_code":"games_video","description":"","address1":"615 E 6th St","address2":"","zip_code":"10009","city":"New York","state_code":"NY","country_code":"USA","location":{"type":"Point","coordinates":[-73.980587,40.724289]}},{"name":"Refinery29","category_code":"fashion","description":"Global Headquarters","address1":"225 Broadway","address2":"Floor 23","zip_code":"10007","city":"New York","state_code":"NY","country_code":"USA","location":{"type":"Point","coordinates":[-73.9508211,40.7277189]}},{"name":"amfAR","category_code":"biotech","description":"World Headquarters","address1":"120 Wall Street","address2":"13th Floor","zip_code":"10019","city":"New York","state_code":"NY","country_code":"USA","location":{"type":"Point","coordinates":[-74.005997,40.704708]}},{"name":"Frogmetrics","category_code":"web","description":"","address1":"125 Noble St","address2":"Suite 2","zip_code":"11222","city":"Brooklyn","state_code":"NY","country_code":"USA","location":{"type":"Point","coordinates":[-73.9555369,40.7286261]}},{"name":"Frogmetrics","category_code":"web","description":"","address1":"125 Noble St","address2":"Suite 2","zip_code":"11222","city":"Brooklyn","state_code":"NY","country_code":"USA","location":{"type":"Point","coordinates":[-73.9555369,40.7286261]}},{"name":"Sapient","category_code":"enterprise","description":"New York","address1":"40 Fulton Street","address2":"","zip_code":"10038","city":"New York","state_code":"NY","country_code":"USA","location":{"type":"Point","coordinates":[-74.004731,40.707872]}},{"name":"GEN247","category_code":"games_video","description":"GEN247 LLC","address1":"Bayard Studios","address2":"98 Bayard St","zip_code":"11222","city":"Brooklyn","state_code":"NY","country_code":"USA","location":{"type":"Point","coordinates":[-73.9447994,40.727434]}},{"name":"Tutor","category_code":"web","description":"Corporate Headquarters","address1":"40 Fulton St.","address2":"","zip_code":"10038","city":"New York","state_code":"NY","country_code":"USA","location":{"type":"Point","coordinates":[-74.004792,40.707921]}},{"name":"Hyperpot","category_code":"search","description":"HyperPot Headquarter","address1":"730 Fifth Ave. The Crown Building","address2":"Suite 916","zip_code":"10019","city":"New York","state_code":"NY","country_code":"USA","location":{"type":"Point","coordinates":[-73.9948358,40.6599808]}},{"name":"Kluster","category_code":"web","description":"New York Office","address1":"3rd St & Ave A","address2":"","zip_code":"10016","city":"New York","state_code":"NY","country_code":"USA","location":{"type":"Point","coordinates":[-73.985281,40.723652]}},{"name":"Vichara Technologies","category_code":"software","description":"New York Office","address1":"111 John Street","address2":"Suite 1801","zip_code":"10038","city":"New York","state_code":"NY","country_code":"USA","location":{"type":"Point","coordinates":[-74.0055997,40.7075492]}},{"name":"Vichara Technologies","category_code":"software","description":"New York Office","address1":"111 John Street","address2":"Suite 1801","zip_code":"10038","city":"New York","state_code":"NY","country_code":"USA","location":{"type":"Point","coordinates":[-74.0055997,40.7075492]}},{"name":"Vemo","category_code":"enterprise","description":"","address1":"204 Huntington Street, Suite TH2","address2":"","zip_code":"11231","city":"Brooklyn","state_code":"NY","country_code":"USA","location":{"type":"Point","coordinates":[-74.0094471,40.6772802]}},{"name":"MyWealth","category_code":"web","description":"","address1":"32 Old Slip,","address2":"10th Floor","zip_code":"10005","city":"New York","state_code":"NY","country_code":"USA","location":{"type":"Point","coordinates":[-74.0083282,40.7038257]}},{"name":"Airtag","category_code":"mobile","description":"AIRTAG New York","address1":"77 Water St.","address2":"","zip_code":"10005","city":"New York","state_code":"NY","country_code":"USA","location":{"type":"Point","coordinates":[-74.0082089,40.704213]}},{"name":"Music For Busy People","category_code":"games_video","description":"","address1":"Avenue C","address2":"","zip_code":"10009","city":"New York City","state_code":"NY","country_code":"USA","location":{"type":"Point","coordinates":[-73.976169,40.727763]}},{"name":"Metromole","category_code":"web","description":null,"address1":"2 Gold Street #710","address2":"","zip_code":"10038","city":"New York","state_code":"NY","country_code":"USA","location":{"type":"Point","coordinates":[-74.007413,40.707253]}},{"name":"NYC Media Group","category_code":"public_relations","description":"NYCTV","address1":"1 Centre Street","address2":"27th Floor","zip_code":"10007","city":"New York","state_code":"NY","country_code":"USA","location":{"type":"Point","coordinates":[-74.003616,40.712949]}},{"name":"TradeCard","category_code":"enterprise","description":"Global Headquarters","address1":"75 Maiden Lane","address2":"12th Floor","zip_code":"10038","city":"New York","state_code":"NY","country_code":"USA","location":{"type":"Point","coordinates":[-74.007801,40.707729]}},{"name":"TradeCard","category_code":"enterprise","description":"Global Headquarters","address1":"75 Maiden Lane","address2":"12th Floor","zip_code":"10038","city":"New York","state_code":"NY","country_code":"USA","location":{"type":"Point","coordinates":[-74.007801,40.707729]}},{"name":"Avature","category_code":"software","description":"HQ","address1":"48 Wall Street","address2":"","zip_code":"10005","city":"New York","state_code":"NY","country_code":"USA","location":{"type":"Point","coordinates":[-74.009242,40.706271]}},{"name":"Extricom","category_code":"network_hosting","description":"Headquarters","address1":"110 Wall Street, 7th Floor","address2":"","zip_code":"10005","city":"New York","state_code":"NY","country_code":"USA","location":{"type":"Point","coordinates":[-73.984716,40.72641]}},{"name":"Mojiva","category_code":"mobile","description":"Headquaters","address1":"136 Baxter St","address2":"","zip_code":"10013","city":"New York","state_code":"NY","country_code":"USA","location":{"type":"Point","coordinates":[-73.998662,40.7185614]}},{"name":"Junction Networks","category_code":null,"description":"New York City","address1":"55 Broad Street","address2":"20th Floor","zip_code":"10004","city":"New York","state_code":"NY","country_code":"USA","location":{"type":"Point","coordinates":[-74.010983,40.705255]}},{"name":"Transfer To","category_code":"mobile","description":"United States","address1":"101 University Ave","address2":"Suite 210","zip_code":"94301","city":"Palo Alto","state_code":"CA","country_code":"USA","location":{"type":"Point","coordinates":[-74.010983,40.705255]}},{"name":"MediaWhiz","category_code":"advertising","description":"","address1":"77 Water Street","address2":"12th Floor","zip_code":"10005","city":"New York","state_code":"NY","country_code":"USA","location":{"type":"Point","coordinates":[-74.011546,40.704622]}},{"name":"Harvest","category_code":"enterprise","description":"HQ","address1":"187 Lafayette St.","address2":"Floor 6","zip_code":"10013","city":"New York","state_code":"NY","country_code":"USA","location":{"type":"Point","coordinates":[-73.9986592,40.7196275]}},{"name":"Gravityspot","category_code":"network_hosting","description":"World Headquarters","address1":"22 E 1st St","address2":"Suite 408","zip_code":"10003","city":"New York","state_code":"NY","country_code":"USA","location":{"type":"Point","coordinates":[-73.991122,40.724416]}},{"name":"Shutterstock","category_code":"public_relations","description":"Shutterstock","address1":"60 Broad Street","address2":"30th Floor","zip_code":"10004","city":"New York City","state_code":"NY","country_code":"USA","location":{"type":"Point","coordinates":[-74.0115175,40.7051551]}},{"name":"JumpTV","category_code":"games_video","description":null,"address1":"40 Broad Street, Suite 500","address2":null,"zip_code":"10004","city":"New York","state_code":"NY","country_code":"USA","location":{"type":"Point","coordinates":[-74.011398,40.705898]}},{"name":"Kapitall","category_code":"finance","description":"Headquarters","address1":"241 Centre Street","address2":"Suite 6FL","zip_code":"10013","city":"New York","state_code":"NY","country_code":"USA","location":{"type":"Point","coordinates":[-73.9983139,40.720391]}},{"name":"Cinelan","category_code":"games_video","description":"","address1":"407 Broome Street,","address2":"# 7B","zip_code":"10013","city":"New York","state_code":"NY","country_code":"USA","location":{"type":"Point","coordinates":[-73.998107,40.720699]}},{"name":"Boonty","category_code":"games_video","description":null,"address1":"54 Franklin Street","address2":"3F","zip_code":"10013","city":"New York","state_code":"NY","country_code":"USA","location":{"type":"Point","coordinates":[-74.002662,40.717248]}},{"name":"TheStreet","category_code":"finance","description":"Corporate Headquarters","address1":"14 Wall Street","address2":"","zip_code":"","city":"New York","state_code":"NY","country_code":"USA","location":{"type":"Point","coordinates":[-74.010816,40.707645]}},{"name":"NorthStar Systems International","category_code":"software","description":"New York Office","address1":"14 Wall Street, Suite 1100A","address2":"","zip_code":"10005","city":"New York","state_code":"NY","country_code":"USA","location":{"type":"Point","coordinates":[-74.010816,40.707645]}},{"name":"GigaOM","category_code":"news","description":"","address1":"","address2":"","zip_code":"","city":"New York","state_code":"NY","country_code":"USA","location":{"type":"Point","coordinates":[-74.0059731,40.7143528]}},{"name":"Beam It Up Scotty","category_code":"mobile","description":"","address1":"","address2":"","zip_code":"","city":"","state_code":"NY","country_code":"USA","location":{"type":"Point","coordinates":[-74.0059731,40.7143528]}},{"name":"Backbase","category_code":"software","description":"World Headquarters","address1":"","address2":"","zip_code":"","city":"New York","state_code":"NY","country_code":"USA","location":{"type":"Point","coordinates":[-74.0059731,40.7143528]}},{"name":"Thrive","category_code":"web","description":"","address1":"265 Canal St. STE 601","address2":"","zip_code":"10013","city":"New York","state_code":"NY","country_code":"USA","location":{"type":"Point","coordinates":[-74.00118,40.718871]}},{"name":"Mint Digital","category_code":null,"description":"Mint Digital New York","address1":"425 Broadway","address2":"2nd Floor","zip_code":"10013","city":"New York","state_code":"NY","country_code":"USA","location":{"type":"Point","coordinates":[-74.0011694,40.7188875]}},{"name":"Vitrue","category_code":"enterprise","description":"NYC Office","address1":"205 Lexington Ave.","address2":"Suite 700","zip_code":"10016","city":"New York","state_code":"NY","country_code":"USA","location":{"type":"Point","coordinates":[-74.001169,40.718888]}},{"name":"ReverbNation","category_code":"software","description":"ReverbNation NYC","address1":"555 8th Ave","address2":"Suite 909","zip_code":"10008","city":"New York","state_code":"NY","country_code":"USA","location":{"type":"Point","coordinates":[-74.001169,40.718888]}},{"name":"FixSor","category_code":"network_hosting","description":null,"address1":"PO Box 4668 #75552","address2":"","zip_code":"10163","city":"New York,","state_code":"NY","country_code":"USA","location":{"type":"Point","coordinates":[-74.011827,40.706527]}},{"name":"Control Group","category_code":"consulting","description":"Headquarters","address1":"233 Broadway","address2":"21st Floor","zip_code":"10279","city":"New York","state_code":"NY","country_code":"USA","location":{"type":"Point","coordinates":[-74.007767,40.7124151]}},{"name":"Vaultive","category_code":"security","description":"HQ","address1":"100 Broadway, 14th Floor","address2":"","zip_code":"10005","city":"New York","state_code":"NY","country_code":"USA","location":{"type":"Point","coordinates":[-74.011114,40.707954]}},{"name":"GroundRez","category_code":"public_relations","description":"","address1":"Lafayette St","address2":"","zip_code":"","city":"New York","state_code":"NY","country_code":"USA","location":{"type":"Point","coordinates":[-73.9973,40.722118]}},{"name":"ON24","category_code":"web","description":"New York Office","address1":"31 Howard Street","address2":"4th Floor","zip_code":"10013","city":"New York","state_code":"NY","country_code":"USA","location":{"type":"Point","coordinates":[-74.000754,40.719609]}},{"name":"SecondMarket","category_code":"finance","description":"Headquarters","address1":"636 Avenue of the americas","address2":"","zip_code":"10011","city":"New York","state_code":"NY","country_code":"USA","location":{"type":"Point","coordinates":[-74.012822,40.705439]}},{"name":"Elika Associates","category_code":"other","description":"NY Headquarters","address1":"26 Broadway","address2":"Suite 1608","zip_code":"10004","city":"New York","state_code":"NY","country_code":"USA","location":{"type":"Point","coordinates":[-74.012822,40.705439]}},{"name":"Mochila","category_code":"advertising","description":"HQ","address1":"225 Broadway, Ste. 1805","address2":"","zip_code":"10007","city":"New York","state_code":"NY","country_code":"USA","location":{"type":"Point","coordinates":[-74.008622,40.711982]}},{"name":"Solidea","category_code":"other","description":"Headquarters","address1":"299 Broadway","address2":"12th Floor","zip_code":"10007","city":"New York","state_code":"NY","country_code":"USA","location":{"type":"Point","coordinates":[-74.005897,40.715145]}},{"name":"Convos","category_code":"web","description":null,"address1":"299 Broadway","address2":"12th Floor","zip_code":"10007","city":"New York","state_code":"NY","country_code":"USA","location":{"type":"Point","coordinates":[-74.005897,40.715145]}},{"name":"Tigerbow","category_code":"ecommerce","description":"","address1":"PO Box 26","address2":"","zip_code":"10113","city":"New York","state_code":"NY","country_code":"USA","location":{"type":"Point","coordinates":[-74.0067,40.7143]}},{"name":"LeadVine","category_code":"enterprise","description":"","address1":"","address2":"","zip_code":"10004","city":"New York","state_code":null,"country_code":"USA","location":{"type":"Point","coordinates":[-74.0138541,40.7038704]}},{"name":"Email Data Source","category_code":null,"description":"","address1":"65 Broadway, Suite 601","address2":"","zip_code":"10006","city":"New York","state_code":"NY","country_code":"USA","location":{"type":"Point","coordinates":[-74.0121632,40.7071576]}},{"name":"Sword","category_code":"software","description":"","address1":"17 State Street","address2":"26th Floor","zip_code":"10004","city":"New York","state_code":"NY","country_code":"USA","location":{"type":"Point","coordinates":[-74.0143524,40.7029757]}},{"name":"Fog Creek Software","category_code":"software","description":"","address1":"55 Broadway","address2":"Floor 25","zip_code":"10006","city":"New York","state_code":"NY","country_code":"USA","location":{"type":"Point","coordinates":[-74.012533,40.706728]}},{"name":"XO Group","category_code":"web","description":"","address1":"462 Broadway, Floor 6","address2":"","zip_code":"10013","city":"New York","state_code":"NY","country_code":"USA","location":{"type":"Point","coordinates":[-74.00007,40.720824]}},{"name":"Strateer","category_code":"web","description":null,"address1":"86 Chambers St","address2":"Suite 701","zip_code":"10007","city":"New York","state_code":"NY","country_code":"USA","location":{"type":"Point","coordinates":[-74.007072,40.714521]}},{"name":"DoubleVerify","category_code":"advertising","description":"DoubleVerify, NY","address1":"575 8th Avenue","address2":"8th floor","zip_code":"10018","city":"New York","state_code":"NY","country_code":"USA","location":{"type":"Point","coordinates":[-73.9451011,40.6454932]}},{"name":"ContextWeb","category_code":"analytics","description":null,"address1":"22 Cortlandt Street","address2":"","zip_code":"10007","city":"New York","state_code":"NY","country_code":"USA","location":{"type":"Point","coordinates":[-74.010808,40.71014]}},{"name":"Pilotlite","category_code":"games_video","description":"NY","address1":"81 Worth Street","address2":"","zip_code":"10013","city":"New York","state_code":"NY","country_code":"USA","location":{"type":"Point","coordinates":[-74.005398,40.7166822]}},{"name":"Clickz","category_code":"web","description":"Corporate Headquarters","address1":"270 Lafayette Street","address2":"Suite 700","zip_code":"10012","city":"New York","state_code":"NY","country_code":"USA","location":{"type":"Point","coordinates":[-73.99644,40.723703]}},{"name":"Undercurrent","category_code":"other","description":"Headquarters","address1":"270 Lafayette Street","address2":"Suite 1310","zip_code":"10012","city":"New York","state_code":"NY","country_code":"USA","location":{"type":"Point","coordinates":[-73.9964376,40.723714]}},{"name":"Wetpaint","category_code":"web","description":"","address1":"270 Lafayette Street","address2":"Suite 505","zip_code":"10012","city":"New York","state_code":"NY","country_code":"USA","location":{"type":"Point","coordinates":[-73.9964312,40.7237306]}},{"name":"Saffron Brand Consultants","category_code":"advertising","description":"New York Office","address1":"441 Broadway","address2":"","zip_code":"10013","city":"New York","state_code":"NY","country_code":"USA","location":{"type":"Point","coordinates":[-74.001487,40.720331]}},{"name":"TrialX","category_code":"web","description":"New York","address1":"275 Madison Avenue, 14th Floor","address2":"","zip_code":"10016","city":"New York","state_code":"NY","country_code":"USA","location":{"type":"Point","coordinates":[-73.9893359,40.7277434]}},{"name":"Soundwalk","category_code":"games_video","description":"","address1":"508 BROADWAY NO.5","address2":"","zip_code":"10012","city":"New York","state_code":"NY","country_code":"USA","location":{"type":"Point","coordinates":[-73.999044,40.722266]}},{"name":"Moody's","category_code":"other","description":"Headquarters","address1":"99 Church Street","address2":"","zip_code":"10007","city":"New York","state_code":"NY","country_code":"USA","location":{"type":"Point","coordinates":[-74.0093453,40.712985]}},{"name":"Innovid","category_code":"advertising","description":"NY Office","address1":"584 Broadway","address2":"Suite 1206","zip_code":"10012","city":"New York","state_code":"NY","country_code":"USA","location":{"type":"Point","coordinates":[-73.99873,40.722655]}},{"name":"Pando Networks","category_code":"games_video","description":null,"address1":"520 Broadway","address2":"10th Floor","zip_code":"10012","city":"New York","state_code":"NY","country_code":"USA","location":{"type":"Point","coordinates":[-73.99873,40.722655]}},{"name":"Digital Bloom","category_code":"ecommerce","description":"US-Office","address1":"84 Franklin Street","address2":"","zip_code":"10013","city":"New York","state_code":"NY","country_code":"USA","location":{"type":"Point","coordinates":[-74.004602,40.718177]}},{"name":"Briteclick","category_code":"search","description":"New York","address1":"","address2":"","zip_code":"10006","city":"","state_code":"NY","country_code":"USA","location":{"type":"Point","coordinates":[-74.01312,40.708093]}},{"name":"Briteclick","category_code":"search","description":"New York","address1":"","address2":"","zip_code":"10006","city":"","state_code":"NY","country_code":"USA","location":{"type":"Point","coordinates":[-74.01312,40.708093]}},{"name":"IDEO","category_code":"consulting","description":"","address1":"28 Mercer Street","address2":"2nd Floor","zip_code":"10013","city":"New York","state_code":"NY","country_code":"USA","location":{"type":"Point","coordinates":[-74.001614,40.721026]}},{"name":"GameChanger Media","category_code":"software","description":"New York Office","address1":"86 Chambers St","address2":"2nd Floor","zip_code":"10007","city":"New York","state_code":"NY","country_code":"USA","location":{"type":"Point","coordinates":[-74.0136605,40.7078343]}},{"name":"Trendrr","category_code":"enterprise","description":"","address1":"580 Broadway","address2":"Suite 210","zip_code":"10012","city":"New York","state_code":"NY","country_code":"USA","location":{"type":"Point","coordinates":[-73.997026,40.724421]}},{"name":"AddThis","category_code":"advertising","description":"New York Office","address1":"568 Broadway","address2":"11th Floor, Suite 1105","zip_code":"10012","city":"New York","state_code":"NY","country_code":"USA","location":{"type":"Point","coordinates":[-73.996876,40.724604]}},{"name":"On Demand Books","category_code":null,"description":null,"address1":"584 Broadway, Suite 1100","address2":"","zip_code":"10012","city":"New York","state_code":"NY","country_code":"USA","location":{"type":"Point","coordinates":[-73.996876,40.724604]}},{"name":"appssavvy","category_code":"advertising","description":"Headquarters","address1":"594 Broadway","address2":"Suite 207","zip_code":"10012","city":"New York","state_code":"NY","country_code":"USA","location":{"type":"Point","coordinates":[-73.996876,40.724604]}},{"name":"Patch","category_code":"news","description":"","address1":"584 Broadway,","address2":"Suite 1206","zip_code":"10012","city":"New York","state_code":"NY","country_code":"USA","location":{"type":"Point","coordinates":[-73.996876,40.724604]}},{"name":"SwitchGames","category_code":"games_video","description":"","address1":"200 E10th St","address2":"616","zip_code":"10013","city":"New York","state_code":"NY","country_code":"USA","location":{"type":"Point","coordinates":[-73.9867361,40.7297485]}},{"name":"Covet Shop","category_code":"ecommerce","description":"New York","address1":"21 East 7th Street","address2":"","zip_code":"10003","city":"New York","state_code":"NY","country_code":"USA","location":{"type":"Point","coordinates":[-73.989324,40.72874]}},{"name":"Blast Radius","category_code":"web","description":"Corporate Headquarters","address1":"594 Broadway","address2":"Suite 206","zip_code":"10012","city":"New York","state_code":"NY","country_code":"USA","location":{"type":"Point","coordinates":[-73.997076,40.725043]}},{"name":"AppNexus","category_code":"advertising","description":"Headquarters","address1":"28 W. 23rd Street","address2":"Fifth Floor","zip_code":"10010","city":"New York","state_code":"NY","country_code":"USA","location":{"type":"Point","coordinates":[-73.9970912,40.7250495]}},{"name":"Give Real","category_code":"web","description":"HQ","address1":"594 Broadway, Suite 906","address2":"","zip_code":"10012","city":"New York","state_code":"NY","country_code":"USA","location":{"type":"Point","coordinates":[-73.9970912,40.7250495]}},{"name":"Meetup","category_code":"web","description":null,"address1":"632 Broadway","address2":"10th Floor","zip_code":"10012","city":"New York","state_code":"NY","country_code":"USA","location":{"type":"Point","coordinates":[-73.995722,40.72604]}},{"name":"Livestream","category_code":"games_video","description":"Livestream HQ","address1":"111 8th Avenue, #1509","address2":"","zip_code":"10011","city":"New York","state_code":"NY","country_code":"USA","location":{"type":"Point","coordinates":[-73.995625,40.726155]}},{"name":"Thumbplay","category_code":"music","description":null,"address1":"599 Broadway","address2":"8th Floor","zip_code":"10012","city":"New York","state_code":"NY","country_code":"USA","location":{"type":"Point","coordinates":[-73.997395,40.725435]}},{"name":"Novalsys","category_code":"software","description":"NYC Office","address1":"411 Lafayette Street","address2":"6th Floor","zip_code":"10003","city":"New York","state_code":"NY","country_code":"USA","location":{"type":"Point","coordinates":[-73.9923918,40.7283696]}},{"name":"TickerHound","category_code":"web","description":null,"address1":"419 Lafayette St.","address2":"2nd Floor","zip_code":"10003","city":"New York","state_code":"NY","country_code":"USA","location":{"type":"Point","coordinates":[-73.991924,40.728623]}},{"name":"JobThread","category_code":"advertising","description":"","address1":"","address2":"","zip_code":"10011","city":"New York","state_code":"NY","country_code":"USA","location":{"type":"Point","coordinates":[-74.0101816,40.7150928]}},{"name":"UGO Entertainment","category_code":"web","description":"","address1":"670 Broadway","address2":"2nd Floor","zip_code":"10012","city":"New York","state_code":"NY","country_code":"USA","location":{"type":"Point","coordinates":[-73.994797,40.727216]}},{"name":"Simulmedia","category_code":"advertising","description":"","address1":"670 Broadway","address2":"Second Floor","zip_code":"10012","city":"New York","state_code":"NY","country_code":"USA","location":{"type":"Point","coordinates":[-73.994797,40.727216]}},{"name":"Pond5","category_code":"ecommerce","description":"Pond5","address1":"419 Lafayette Street","address2":"Floor 2","zip_code":"10003","city":"New York","state_code":"NY","country_code":"USA","location":{"type":"Point","coordinates":[-73.9933841,40.7280992]}},{"name":"Pond5","category_code":"ecommerce","description":"Pond5","address1":"419 Lafayette Street","address2":"Floor 2","zip_code":"10003","city":"New York","state_code":"NY","country_code":"USA","location":{"type":"Point","coordinates":[-73.9933841,40.7280992]}},{"name":"Sense Networks","category_code":"mobile","description":"","address1":"1123 Broadway","address2":"Suite 817","zip_code":"10010","city":"New York City","state_code":"NY","country_code":"USA","location":{"type":"Point","coordinates":[-73.999636,40.724647]}},{"name":"GroundReport","category_code":"web","description":null,"address1":"","address2":"","zip_code":"10012","city":"New York","state_code":"NY","country_code":"USA","location":{"type":"Point","coordinates":[-73.998208,40.725568]}},{"name":"Xerpi","category_code":"web","description":null,"address1":"","address2":"","zip_code":"10012","city":"New York","state_code":"NY","country_code":"USA","location":{"type":"Point","coordinates":[-73.998208,40.725568]}},{"name":"OMGPOP","category_code":"games_video","description":"","address1":"SoHo","address2":"","zip_code":"","city":"New York","state_code":"NY","country_code":"USA","location":{"type":"Point","coordinates":[-74.001704,40.723384]}},{"name":"GoMobo","category_code":"web","description":"","address1":"84 Wooster Street","address2":"Suite 301","zip_code":"10012","city":"New York","state_code":"NY","country_code":"USA","location":{"type":"Point","coordinates":[-74.0013669,40.723839]}},{"name":"photothread","category_code":"web","description":"New York","address1":"305 West Broadway, Suite 187","address2":"","zip_code":"10013","city":"New York","state_code":"NY","country_code":"USA","location":{"type":"Point","coordinates":[-74.004441,40.721583]}},{"name":"photothread","category_code":"web","description":"New York","address1":"305 West Broadway, Suite 187","address2":"","zip_code":"10013","city":"New York","state_code":"NY","country_code":"USA","location":{"type":"Point","coordinates":[-74.004441,40.721583]}},{"name":"Guru's Feet","category_code":"network_hosting","description":null,"address1":"","address2":"","zip_code":"10003","city":"NYC","state_code":"NY","country_code":"USA","location":{"type":"Point","coordinates":[-73.9884,40.731392]}},{"name":"ListensToYou","category_code":"advertising","description":"Main Office","address1":"","address2":"","zip_code":"10003","city":"New York","state_code":"NY","country_code":"USA","location":{"type":"Point","coordinates":[-73.9884,40.731392]}},{"name":"GoldMic","category_code":"network_hosting","description":"","address1":"","address2":"","zip_code":"10003","city":"New York","state_code":"NY","country_code":"USA","location":{"type":"Point","coordinates":[-73.9884,40.731392]}},{"name":"GoldMic","category_code":"network_hosting","description":"","address1":"","address2":"","zip_code":"10003","city":"New York","state_code":"NY","country_code":"USA","location":{"type":"Point","coordinates":[-73.9884,40.731392]}},{"name":"Curbsidebooty","category_code":"web","description":"","address1":"","address2":"","zip_code":"11218","city":"","state_code":"NY","country_code":"USA","location":{"type":"Point","coordinates":[-73.974187,40.642591]}},{"name":"Zenbe","category_code":"web","description":"","address1":"156 Reade Street","address2":"","zip_code":"10013","city":"New York","state_code":"NY","country_code":"USA","location":{"type":"Point","coordinates":[-74.010355,40.716884]}},{"name":"Dadaphile","category_code":"web","description":null,"address1":"P.O. Box 220-295","address2":"Greenpoint Station","zip_code":"11222","city":"Brooklyn","state_code":"NY","country_code":"USA","location":{"type":"Point","coordinates":[-73.955432,40.737284]}},{"name":"FledgeWing","category_code":"web","description":"New York Office","address1":"","address2":"","zip_code":"10003","city":"New York","state_code":"NY","country_code":"USA","location":{"type":"Point","coordinates":[-73.9874105,40.7322535]}},{"name":"Buzzmetrics","category_code":"web","description":null,"address1":"770 Broadway","address2":null,"zip_code":"10003","city":"New York","state_code":"NY","country_code":"USA","location":{"type":"Point","coordinates":[-73.991933,40.731118]}},{"name":"Nielsen","category_code":"web","description":"","address1":"85 Broad Street","address2":"","zip_code":"10004","city":"New York","state_code":"NY","country_code":"USA","location":{"type":"Point","coordinates":[-73.991933,40.731118]}},{"name":"Discovery Mining","category_code":"web","description":"New York Office","address1":"770 Broadway","address2":"2nd Floor, Suite 218","zip_code":"10003","city":"New York","state_code":"NY","country_code":"USA","location":{"type":"Point","coordinates":[-73.991933,40.731118]}},{"name":"AOL","category_code":"web","description":"HQ","address1":"770 Broadway","address2":"","zip_code":"10003","city":"New York","state_code":"NY","country_code":"USA","location":{"type":"Point","coordinates":[-73.9919311,40.7311317]}},{"name":"Nielsen Online","category_code":"other","description":"","address1":"770 Broadway,","address2":"13th Fl.","zip_code":"10003","city":"New York","state_code":"NY","country_code":"USA","location":{"type":"Point","coordinates":[-73.9919311,40.7311317]}},{"name":"RateZip","category_code":"web","description":"","address1":"60 E 9th St","address2":"","zip_code":"10003","city":"New York","state_code":"NY","country_code":"USA","location":{"type":"Point","coordinates":[-73.992633,40.731085]}},{"name":"New York Media","category_code":"web","description":"","address1":"75 Varick Street","address2":"","zip_code":"10013","city":"New York","state_code":"NY","country_code":"USA","location":{"type":"Point","coordinates":[-74.006272,40.72276]}},{"name":"Tabbery","category_code":"software","description":"","address1":"","address2":"","zip_code":"","city":"New York","state_code":"NY","country_code":"USA","location":{"type":"Point","coordinates":[-73.990076,40.732525]}},{"name":"Symagio","category_code":"web","description":"","address1":"145 Avenue of the Americas","address2":"7th Floor","zip_code":"10013","city":"New York","state_code":"NY","country_code":"USA","location":{"type":"Point","coordinates":[-74.00492,40.725107]}},{"name":"Logicworks","category_code":"network_hosting","description":"","address1":"155 Avenue of the Americas","address2":"Fifth Floor","zip_code":"10013","city":"New York","state_code":"NY","country_code":"USA","location":{"type":"Point","coordinates":[-74.0045549,40.7254129]}},{"name":"Moogi","category_code":"games_video","description":"","address1":"PO Box 520","address2":"","zip_code":"10013","city":"New York","state_code":"NY","country_code":"USA","location":{"type":"Point","coordinates":[-74.0094471,40.7217861]}},{"name":"Chartbeat","category_code":"analytics","description":"","address1":"826 Broadway","address2":"6th Floor","zip_code":"10003","city":"New York","state_code":"NY","country_code":"USA","location":{"type":"Point","coordinates":[-73.990967,40.73343]}},{"name":"HItviews","category_code":"advertising","description":"New York Office","address1":"817 Broadway","address2":"5th floor","zip_code":"10003","city":"New York City","state_code":"NY","country_code":"USA","location":{"type":"Point","coordinates":[-73.991535,40.733201]}},{"name":"Monitor110","category_code":"web","description":"","address1":"58 E 11th St.","address2":"3rd Flr.","zip_code":"10003","city":"New York","state_code":"NY","country_code":"USA","location":{"type":"Point","coordinates":[-73.992607,40.732748]}},{"name":"Navatar Group","category_code":"software","description":"Navatar Group","address1":"44 Wall Street, 12th Floor","address2":"","zip_code":"10005","city":"New York","state_code":"NY","country_code":"USA","location":{"type":"Point","coordinates":[-73.991877,40.733242]}},{"name":"The FeedRoom","category_code":"public_relations","description":"Corporate Headquarters","address1":"205 Hudson Street","address2":"8th Floor","zip_code":"10013","city":"New York","state_code":"NY","country_code":"USA","location":{"type":"Point","coordinates":[-74.007948,40.723614]}},{"name":"Socialight","category_code":"mobile","description":null,"address1":"36 E 12th St","address2":"6th Floor","zip_code":"10003","city":"New York","state_code":"NY","country_code":"USA","location":{"type":"Point","coordinates":[-73.992189,40.733386]}},{"name":"Proper Cloth","category_code":"ecommerce","description":"New York","address1":"12 Desbrosses Street","address2":"","zip_code":"10013","city":"New York","state_code":"NY","country_code":"USA","location":{"type":"Point","coordinates":[-74.008767,40.723351]}},{"name":"Someecards","category_code":"web","description":"","address1":"401 1st Ave","address2":"Apt 7c","zip_code":"10010","city":"New York","state_code":"NY","country_code":"USA","location":{"type":"Point","coordinates":[-73.979508,40.737778]}},{"name":"Animoto","category_code":"music","description":"Headquarters","address1":"440 Lafayette St.","address2":"","zip_code":"","city":"New York","state_code":"NY","country_code":"USA","location":{"type":"Point","coordinates":[-74.000195,40.72948]}},{"name":"Buzzd","category_code":"mobile","description":"buzzd HQ","address1":"833 Broadway","address2":"","zip_code":"10003","city":"New York","state_code":"NY","country_code":"USA","location":{"type":"Point","coordinates":[-73.991334,40.733928]}},{"name":"Ziki","category_code":"web","description":"","address1":"41 East 11th Street","address2":"","zip_code":"10003","city":"New York","state_code":"NY","country_code":"USA","location":{"type":"Point","coordinates":[-73.9932793,40.733276]}},{"name":"MIVA","category_code":"advertising","description":"","address1":"41 East 11th Street","address2":"","zip_code":"10013","city":"New York","state_code":"NY","country_code":"USA","location":{"type":"Point","coordinates":[-73.9932793,40.733276]}},{"name":"Digital Railroad","category_code":"web","description":null,"address1":"116 E 16th Street","address2":"12th Floor","zip_code":"10003","city":"New York","state_code":"NY","country_code":"USA","location":{"type":"Point","coordinates":[-73.988469,40.735327]}},{"name":"Pivotal Labs","category_code":"consulting","description":"New York Office","address1":"841 Broadway","address2":"8th Floor","zip_code":"10003","city":"New York","state_code":"NY","country_code":"USA","location":{"type":"Point","coordinates":[-73.9910647,40.7343617]}},{"name":"TheLadders","category_code":"web","description":null,"address1":"137 Varick Street","address2":"Floor 8","zip_code":"10013","city":"New York","state_code":"NY","country_code":"USA","location":{"type":"Point","coordinates":[-74.006196,40.725883]}},{"name":"Varick Media Management","category_code":"advertising","description":"World Headquarters","address1":"160 Varick Street","address2":"","zip_code":"10013","city":"New York","state_code":"NY","country_code":"USA","location":{"type":"Point","coordinates":[-74.005177,40.726637]}},{"name":"The Media Kitchen","category_code":"other","description":"Corporate Headquarters","address1":"160 Varick Street","address2":"","zip_code":"10013","city":"New York","state_code":"NY","country_code":"USA","location":{"type":"Point","coordinates":[-74.005177,40.726637]}},{"name":"Atlantic Metro Communications","category_code":"network_hosting","description":"NYC HQ","address1":"325 Hudson St","address2":"4th floor","zip_code":"10013","city":"New York","state_code":"NY","country_code":"USA","location":{"type":"Point","coordinates":[-74.008382,40.724298]}},{"name":"Vertro","category_code":"software","description":"","address1":"143 Varick Street","address2":"","zip_code":"10013","city":"New York","state_code":"NY","country_code":"USA","location":{"type":"Point","coordinates":[-74.006023,40.72616]}},{"name":"Spill","category_code":"games_video","description":"","address1":"143 Varick Street","address2":"","zip_code":"10013","city":"New York","state_code":"NY","country_code":"USA","location":{"type":"Point","coordinates":[-74.006023,40.72616]}},{"name":"ALOT","category_code":"software","description":"","address1":"143 Varick Street","address2":"","zip_code":"10013","city":"New York","state_code":"NY","country_code":"USA","location":{"type":"Point","coordinates":[-74.006023,40.72616]}},{"name":"MediaMall Technologies","category_code":"software","description":"World Headquarters","address1":"20 River Terrace","address2":"","zip_code":"10282","city":"New York","state_code":"NY","country_code":"USA","location":{"type":"Point","coordinates":[-74.0163992,40.7166829]}},{"name":"MissGift","category_code":"other","description":null,"address1":"200 East 21st Street","address2":"4F","zip_code":"10010","city":"New York","state_code":"NY","country_code":"USA","location":{"type":"Point","coordinates":[-73.983665,40.737363]}},{"name":"LockerDome","category_code":"social","description":"NYC","address1":"175 Varick St.","address2":"Suite 523","zip_code":"10014","city":"New York City","state_code":"NY","country_code":"USA","location":{"type":"Point","coordinates":[-74.0057152,40.7272544]}},{"name":"LockerDome","category_code":"social","description":"NYC","address1":"175 Varick St.","address2":"Suite 523","zip_code":"10014","city":"New York City","state_code":"NY","country_code":"USA","location":{"type":"Point","coordinates":[-74.0057152,40.7272544]}},{"name":"AKQA","category_code":"advertising","description":"","address1":"175 Varick St.","address2":"10th Floor","zip_code":"10014","city":"New York","state_code":"NY","country_code":"USA","location":{"type":"Point","coordinates":[-74.005489,40.727475]}},{"name":"AKQA","category_code":"advertising","description":"","address1":"175 Varick St.","address2":"10th Floor","zip_code":"10014","city":"New York","state_code":"NY","country_code":"USA","location":{"type":"Point","coordinates":[-74.005489,40.727475]}},{"name":"onebluebrick","category_code":"public_relations","description":null,"address1":"10 Downing St","address2":"","zip_code":"10014","city":"New York","state_code":"NY","country_code":"USA","location":{"type":"Point","coordinates":[-74.002808,40.729286]}},{"name":"AdParlor","category_code":"advertising","description":"New York","address1":"304 Hudson St.","address2":"6th Floor","zip_code":"10003","city":"New York","state_code":"NY","country_code":"USA","location":{"type":"Point","coordinates":[-74.0073271,40.7262412]}},{"name":"alaTest","category_code":"web","description":"alaTest USA","address1":"175 Varick Street","address2":"","zip_code":"10014","city":"New York","state_code":"NY","country_code":"USA","location":{"type":"Point","coordinates":[-74.0057125,40.727425]}},{"name":"Stylesight","category_code":"fashion","description":"NY (Headquarters)","address1":"25 W. 39TH STREET","address2":"14TH FLOOR","zip_code":"10018","city":"NEW YORK","state_code":"NY","country_code":"USA","location":{"type":"Point","coordinates":[-74.000827,40.730763]}},{"name":"Stylesight","category_code":"fashion","description":"NY (Headquarters)","address1":"25 W. 39TH STREET","address2":"14TH FLOOR","zip_code":"10018","city":"NEW YORK","state_code":"NY","country_code":"USA","location":{"type":"Point","coordinates":[-74.000827,40.730763]}},{"name":"PayLoadz","category_code":"web","description":"Main","address1":"","address2":"","zip_code":"19106","city":"Philadelphia","state_code":"PA","country_code":"USA","location":{"type":"Point","coordinates":[-73.981534,40.738832]}},{"name":"CashEdge","category_code":"web","description":"Corporate Headquarters","address1":"215 Park Avenue South","address2":"Suite 1300","zip_code":"10003","city":"New York","state_code":"NY","country_code":"USA","location":{"type":"Point","coordinates":[-73.988339,40.736796]}},{"name":"BustedTees","category_code":"web","description":"","address1":"54 West 22nd Street","address2":"","zip_code":"10003","city":"New York","state_code":"NY","country_code":"USA","location":{"type":"Point","coordinates":[-73.987973,40.737136]}},{"name":"Reprise Media","category_code":"advertising","description":"Corporate Headquarters","address1":"55 5th. Ave.","address2":"16th Floor","zip_code":"10003","city":"New York","state_code":"NY","country_code":"USA","location":{"type":"Point","coordinates":[-73.994078,40.734722]}},{"name":"Mekanism","category_code":"advertising","description":"New York Office","address1":"333 Hudson St.","address2":"6th Floor","zip_code":"10013","city":"New York","state_code":"NY","country_code":"USA","location":{"type":"Point","coordinates":[-74.007655,40.727107]}},{"name":"Echospin","category_code":"ecommerce","description":"Headquarters","address1":"333 Hudson St","address2":"Suite 403","zip_code":"10013","city":"New York","state_code":"NY","country_code":"USA","location":{"type":"Point","coordinates":[-74.007655,40.727107]}},{"name":"Special Ops Media","category_code":"advertising","description":null,"address1":"235 Park Ave South","address2":"5th floor","zip_code":"10003","city":"New York City","state_code":"NY","country_code":"USA","location":{"type":"Point","coordinates":[-73.987725,40.737721]}},{"name":"manageME7","category_code":"software","description":"","address1":"228 Park Ave S # 25950","address2":"","zip_code":"10003","city":"New York","state_code":"NY","country_code":"USA","location":{"type":"Point","coordinates":[-73.988315,40.7376483]}},{"name":"Robotgalaxy","category_code":"games_video","description":"","address1":"41 Union Square West,","address2":"Suite 808","zip_code":"10003","city":"New York","state_code":"NY","country_code":"USA","location":{"type":"Point","coordinates":[-73.990947,40.737216]}},{"name":"SpaBooker","category_code":"software","description":"SpaBooker Head Office","address1":"22 Cortlandt St Floor 18","address2":"","zip_code":"10007","city":"New York","state_code":"NY","country_code":"USA","location":{"type":"Point","coordinates":[-73.987199,40.738567]}},{"name":"Forbes","category_code":"web","description":"","address1":"60 5th Avenue","address2":"","zip_code":"10011","city":"New York","state_code":"NY","country_code":"USA","location":{"type":"Point","coordinates":[-73.993302,40.736416]}},{"name":"OneSource Information Services","category_code":"analytics","description":"New York","address1":"395 Hudson Street","address2":"1st Floor","zip_code":"10014","city":"New York City","state_code":"NY","country_code":"USA","location":{"type":"Point","coordinates":[-74.007778,40.729194]}},{"name":"Phreesia","category_code":"software","description":null,"address1":"110 E. 23rd Street","address2":"4th Floor","zip_code":"10010","city":"New York","state_code":"NY","country_code":"USA","location":{"type":"Point","coordinates":[-73.985878,40.739794]}},{"name":"RGA Advisors, LLC","category_code":"consulting","description":"Corporate Address","address1":"192 Lexington Avenue","address2":"Second Floor","zip_code":"10016","city":"New York","state_code":"NY","country_code":"USA","location":{"type":"Point","coordinates":[-73.985207,40.740145]}},{"name":"Allopass","category_code":"web","description":"New York","address1":"101 5th Ave","address2":"9th Floor","zip_code":"10003","city":"New York","state_code":"NY","country_code":"USA","location":{"type":"Point","coordinates":[-73.991764,40.737989]}},{"name":"BeliefNet","category_code":"web","description":null,"address1":"115 E 23rd Street","address2":null,"zip_code":"10010","city":"New York","state_code":"NY","country_code":"USA","location":{"type":"Point","coordinates":[-73.985433,40.740231]}},{"name":"HealthiNation","category_code":"web","description":"HealthiNation","address1":"35 East 21st Street","address2":"Suite 6E","zip_code":"10010","city":"New York","state_code":"NY","country_code":"USA","location":{"type":"Point","coordinates":[-73.988357,40.739341]}},{"name":"FeedBackFX","category_code":"search","description":null,"address1":"303 Park Avenue South","address2":"Suite 1029","zip_code":"10010","city":"New York","state_code":"NY","country_code":"USA","location":{"type":"Point","coordinates":[-73.985777,40.740348]}},{"name":"LicenseStream","category_code":"enterprise","description":"","address1":"65 Morton Street","address2":"Ground Floor","zip_code":"10014","city":"New York","state_code":"NY","country_code":"USA","location":{"type":"Point","coordinates":[-74.006311,40.7309047]}},{"name":"NHA Media","category_code":"consulting","description":"","address1":"124 Fifth Avenue","address2":"","zip_code":"10001","city":"New York City","state_code":"NY","country_code":"USA","location":{"type":"Point","coordinates":[-73.9919538,40.7382749]}},{"name":"OkCupid","category_code":"web","description":"","address1":"39 W 14th St","address2":"Ste 502","zip_code":"10011-7403","city":"New York","state_code":"NY","country_code":"USA","location":{"type":"Point","coordinates":[-73.9955426,40.7368158]}},{"name":"Mashable","category_code":"news","description":"Mashable","address1":"304 Park Ave South","address2":"3rd Floor","zip_code":"10010-3646","city":"New York","state_code":"NY","country_code":"USA","location":{"type":"Point","coordinates":[-73.9867417,40.7401544]}},{"name":"Flow TV","category_code":"other","description":"","address1":"1790 Broadway Avenue","address2":"","zip_code":"10019","city":"New York","state_code":"NY","country_code":"USA","location":{"type":"Point","coordinates":[-73.981829,40.741557]}},{"name":"HD Cloud","category_code":"other","description":"Diversion Media","address1":"900 Broadway, Suite 900","address2":"","zip_code":"10003","city":"New York","state_code":"NY","country_code":"USA","location":{"type":"Point","coordinates":[-73.9897456,40.7391853]}},{"name":"Return Path","category_code":"messaging","description":"HQ","address1":"304 Park Ave. South","address2":"7th Floor","zip_code":"10010","city":"New York","state_code":"NY","country_code":"USA","location":{"type":"Point","coordinates":[-73.987002,40.740207]}},{"name":"Business Insider","category_code":"web","description":"","address1":"257 Park Ave South","address2":"","zip_code":"10010","city":"New York","state_code":"NY","country_code":"USA","location":{"type":"Point","coordinates":[-73.990911,40.73906]}},{"name":"Proclivity Systems","category_code":"software","description":"Headquarters","address1":"22 W 19th Street","address2":"9th floor","zip_code":"10011","city":"New York","state_code":"NY","country_code":"USA","location":{"type":"Point","coordinates":[-73.992,40.738954]}},{"name":"Gust","category_code":"finance","description":"Main Office","address1":"158 West 29th Street","address2":"11th Floor","zip_code":"10001","city":"New York","state_code":"NY","country_code":"USA","location":{"type":"Point","coordinates":[-73.987794,40.740512]}},{"name":"Gust","category_code":"finance","description":"Main Office","address1":"158 West 29th Street","address2":"11th Floor","zip_code":"10001","city":"New York","state_code":"NY","country_code":"USA","location":{"type":"Point","coordinates":[-73.987794,40.740512]}},{"name":"Voice123","category_code":"advertising","description":"Headquarters","address1":"902 Broadway","address2":"","zip_code":"10010","city":"New York","state_code":"NY","country_code":"USA","location":{"type":"Point","coordinates":[-73.987794,40.740512]}},{"name":"Comixology","category_code":"games_video","description":"Main Office","address1":"159 West 25th Street 9th floor","address2":"","zip_code":"10010-4436","city":"New York","state_code":"NY","country_code":"USA","location":{"type":"Point","coordinates":[-73.987794,40.740512]}},{"name":"PerformLine","category_code":"advertising","description":"Headquarters","address1":"30 West Park Place","address2":"","zip_code":"07960","city":"Morristown","state_code":"NJ","country_code":"USA","location":{"type":"Point","coordinates":[-73.987794,40.740512]}},{"name":"YellowSpaces","category_code":"web","description":"Corporate Office","address1":"915 Broadway","address2":"Suite 1210","zip_code":"10010","city":"New York","state_code":"NY","country_code":"USA","location":{"type":"Point","coordinates":[-73.990024,40.739867]}},{"name":"YellowSpaces","category_code":"web","description":"Corporate Office","address1":"915 Broadway","address2":"Suite 1210","zip_code":"10010","city":"New York","state_code":"NY","country_code":"USA","location":{"type":"Point","coordinates":[-73.990024,40.739867]}},{"name":"Modelinia","category_code":"web","description":"","address1":"915 Broadway,","address2":"20th Floor","zip_code":"10010","city":"New York","state_code":"NY","country_code":"USA","location":{"type":"Point","coordinates":[-73.990024,40.739867]}},{"name":"Dimestore Media","category_code":null,"description":"","address1":"386 Park Ave","address2":"- 19th Floor","zip_code":"10016","city":"NY","state_code":"NY","country_code":"USA","location":{"type":"Point","coordinates":[-73.993906,40.738395]}},{"name":"Knewton","category_code":"education","description":"","address1":"100 5th Avenue","address2":"8th Floor","zip_code":"10011","city":"New York","state_code":"NY","country_code":"USA","location":{"type":"Point","coordinates":[-74.0078134,40.7310476]}},{"name":"Recyclebank","category_code":"cleantech","description":"Headquarters","address1":"95 Morton Street","address2":"7th Floor","zip_code":"10014","city":"New York","state_code":"NY","country_code":"USA","location":{"type":"Point","coordinates":[-74.0078134,40.7310476]}},{"name":"Breakaway Communications","category_code":"public_relations","description":"New York office","address1":"156 5th Avenue","address2":"Suite 1119#","zip_code":"NY 10010","city":"New York","state_code":"NY","country_code":"USA","location":{"type":"Point","coordinates":[-73.9907472,40.73998]}},{"name":"SelectMinds","category_code":"network_hosting","description":null,"address1":"149 Fifth Avenue","address2":null,"zip_code":"10010","city":"New York","state_code":"NY","country_code":"USA","location":{"type":"Point","coordinates":[-73.990004,40.740251]}},{"name":"Empire Rehearsal Studios","category_code":"other","description":"","address1":"47-32 32nd Place","address2":"","zip_code":"11101","city":"Long Island City","state_code":"NY","country_code":"USA","location":{"type":"Point","coordinates":[-73.9331566,40.7421458]}},{"name":"Zemanta","category_code":"web","description":"New York Office","address1":"33 West 17th St","address2":"Suite 903","zip_code":"10011","city":"New York","state_code":"NY","country_code":"USA","location":{"type":"Point","coordinates":[-73.9939213,40.7387945]}},{"name":"Web Foundation","category_code":"other","description":"","address1":"31 West 18Th St,","address2":"Suite 801","zip_code":"10011","city":"New York","state_code":"NY","country_code":"USA","location":{"type":"Point","coordinates":[-73.9934067,40.7391656]}},{"name":"Oyster Digital Media","category_code":"other","description":"New York City","address1":"399 East 72 Street 16th Floor","address2":"","zip_code":"10021","city":"New York","state_code":"NY","country_code":"USA","location":{"type":"Point","coordinates":[-73.9954473,40.738495]}},{"name":"Bonobos","category_code":"ecommerce","description":"","address1":"45 West 25th Street","address2":"5th Floor","zip_code":"10011","city":"New York","state_code":"NY","country_code":"USA","location":{"type":"Point","coordinates":[-73.9954585,40.7384997]}},{"name":"Indextools","category_code":"other","description":"Indextools Americas","address1":"95 Morton Street","address2":"","zip_code":"10014","city":"New York","state_code":"NY","country_code":"USA","location":{"type":"Point","coordinates":[-74.008584,40.731373]}},{"name":"FanFeedr","category_code":"web","description":"HQ","address1":"22 W 19th.","address2":"9th Floor c\/o Proclivity Systems","zip_code":"10011","city":"NEW YORK","state_code":"NY","country_code":"USA","location":{"type":"Point","coordinates":[-73.9928423,40.7395876]}},{"name":"ScanScout","category_code":"advertising","description":"New York Office","address1":"450 Seventh Ave, Ste 209","address2":"","zip_code":"10011","city":"New York","state_code":"NY","country_code":"USA","location":{"type":"Point","coordinates":[-73.993158,40.739833]}},{"name":"BrightTALK","category_code":"software","description":"New York Office","address1":"1140 Avenue of the Americas","address2":"9th Floor","zip_code":"10036","city":"New York","state_code":"NY","country_code":"USA","location":{"type":"Point","coordinates":[-73.9931582,40.7398335]}},{"name":"Cellufun","category_code":"games_video","description":"Worldwide HQ","address1":"33 West 19th Street","address2":"Suite 329","zip_code":"10011","city":"New York","state_code":"NY","country_code":"USA","location":{"type":"Point","coordinates":[-73.9930489,40.73993]}},{"name":"TRAFFIQ","category_code":"advertising","description":"Headquarters","address1":"462 7th Avenue","address2":"21st Floor","zip_code":"10018","city":"New York","state_code":"NY","country_code":"USA","location":{"type":"Point","coordinates":[-73.9844611,40.7429533]}},{"name":"Dotmenu","category_code":"web","description":"HQ","address1":"11 Broadway","address2":"16th Floor","zip_code":"10004","city":"New York","state_code":"NY","country_code":"USA","location":{"type":"Point","coordinates":[-73.993367,40.740162]}},{"name":"Empressr","category_code":"public_relations","description":null,"address1":"36 West 20th st","address2":"","zip_code":"10011","city":"New York","state_code":"NY","country_code":"USA","location":{"type":"Point","coordinates":[-73.993127,40.740337]}},{"name":"eXelate","category_code":"advertising","description":"Headquarters","address1":"7 West 22nd Street","address2":"9th Floor","zip_code":"10010","city":"New York","state_code":"NY","country_code":"USA","location":{"type":"Point","coordinates":[-73.990753,40.741266]}},{"name":"WiFilez","category_code":null,"description":"main office","address1":"","address2":"","zip_code":"10014","city":"New York","state_code":"NY","country_code":"USA","location":{"type":"Point","coordinates":[-74.005661,40.734331]}},{"name":"Centro","category_code":"advertising","description":"East","address1":"22 West 21st Street","address2":"Floor 7","zip_code":"10010","city":"New York","state_code":"NY","country_code":"USA","location":{"type":"Point","coordinates":[-73.9920174,40.7408753]}},{"name":"NOM","category_code":"web","description":"New York Headquarters","address1":"964 Flushing Ave","address2":"First Floor","zip_code":"11206","city":"Brooklyn","state_code":"NY","country_code":"USA","location":{"type":"Point","coordinates":[-73.992632,40.740672]}},{"name":"ShopWiki","category_code":"ecommerce","description":"","address1":"17 W 18th St","address2":"8th Floor","zip_code":"10011","city":"New York","state_code":"NY","country_code":"USA","location":{"type":"Point","coordinates":[-73.993376,40.740441]}},{"name":"ShopWiki","category_code":"ecommerce","description":"","address1":"17 W 18th St","address2":"8th Floor","zip_code":"10011","city":"New York","state_code":"NY","country_code":"USA","location":{"type":"Point","coordinates":[-73.993376,40.740441]}},{"name":"Bango","category_code":"mobile","description":"USA","address1":"20 West 22nd Street","address2":"Suite 906","zip_code":"10010","city":"New York","state_code":"NY","country_code":"USA","location":{"type":"Point","coordinates":[-73.9912518,40.7412488]}},{"name":"Taridium VoIP","category_code":"public_relations","description":"HQ","address1":"130 Barrow Street","address2":"#404","zip_code":"10014","city":"New York","state_code":"NY","country_code":"USA","location":{"type":"Point","coordinates":[-74.009311,40.732225]}},{"name":"InnerRewards","category_code":"ecommerce","description":"East Coast","address1":"16 West 23rd","address2":"Floor 4","zip_code":"10010","city":"New York","state_code":"NY","country_code":"USA","location":{"type":"Point","coordinates":[-73.990468,40.741594]}},{"name":"InnerRewards","category_code":"ecommerce","description":"East Coast","address1":"16 West 23rd","address2":"Floor 4","zip_code":"10010","city":"New York","state_code":"NY","country_code":"USA","location":{"type":"Point","coordinates":[-73.990468,40.741594]}},{"name":"Clickable","category_code":"advertising","description":"New York Office","address1":"7 West 22nd Street","address2":"7th Floor","zip_code":"10010","city":"New York","state_code":"NY","country_code":"USA","location":{"type":"Point","coordinates":[-73.9912208,40.7413559]}},{"name":"HitTail","category_code":"advertising","description":null,"address1":"7 W 22nd Street","address2":"","zip_code":"10010","city":"New York","state_code":"NY","country_code":"USA","location":{"type":"Point","coordinates":[-73.991222,40.741356]}},{"name":"Panjiva","category_code":"enterprise","description":"New York Office","address1":"20 West 22nd Street","address2":"Suite 801","zip_code":"10010","city":"NYC","state_code":"NY","country_code":"USA","location":{"type":"Point","coordinates":[-73.991561,40.741276]}},{"name":"Panjiva","category_code":"enterprise","description":"New York Office","address1":"20 West 22nd Street","address2":"Suite 801","zip_code":"10010","city":"NYC","state_code":"NY","country_code":"USA","location":{"type":"Point","coordinates":[-73.991561,40.741276]}},{"name":"Buzzr","category_code":"software","description":"Buzzr.com","address1":"38 W 21st St","address2":"3rd Floor","zip_code":"10010","city":"New York","state_code":"NY","country_code":"USA","location":{"type":"Point","coordinates":[-73.992609,40.740941]}},{"name":"Davidville","category_code":"web","description":"Corporate Headquarters","address1":"419 Park Ave. South","address2":"Suite 807","zip_code":"10016","city":"New York","state_code":"NY","country_code":"USA","location":{"type":"Point","coordinates":[-73.983626,40.743808]}},{"name":"Tumblr","category_code":"web","description":null,"address1":"419 Park Ave. South, Suite 807","address2":null,"zip_code":"10016","city":"New York","state_code":"NY","country_code":"USA","location":{"type":"Point","coordinates":[-73.983626,40.743808]}},{"name":"Next New Networks","category_code":"web","description":"","address1":"22 W 21st St","address2":"10th Floor","zip_code":"10010","city":"New York","state_code":"NY","country_code":"USA","location":{"type":"Point","coordinates":[-73.983626,40.743808]}},{"name":"Advaliant","category_code":"advertising","description":"Headquarters","address1":"404 Park Ave South","address2":"2nd floor","zip_code":"10016","city":"New York","state_code":"NY","country_code":"USA","location":{"type":"Point","coordinates":[-73.984268,40.743662]}},{"name":"Advaliant","category_code":"advertising","description":"New York Headquarters","address1":"404 Park Ave South","address2":"2nd floor","zip_code":"10016","city":"New York","state_code":"NY","country_code":"USA","location":{"type":"Point","coordinates":[-73.984268,40.743662]}},{"name":"MediaTrust","category_code":"advertising","description":"","address1":"404 Park Avenue South,","address2":"2nd floor","zip_code":"10016","city":"New York","state_code":"NY","country_code":"USA","location":{"type":"Point","coordinates":[-73.984268,40.743662]}},{"name":"VISUALPLANT","category_code":"games_video","description":"California","address1":"200 Winchester Circle","address2":"Suite D320","zip_code":"95032","city":"Los Gatos","state_code":"CA","country_code":"USA","location":{"type":"Point","coordinates":[-73.998726,40.738476]}},{"name":"myJambi","category_code":"ecommerce","description":"","address1":"37 East 28th Street","address2":"Suite 201","zip_code":"10016","city":"New York","state_code":"NY","country_code":"USA","location":{"type":"Point","coordinates":[-73.98458,40.74385]}},{"name":"myJambi","category_code":"ecommerce","description":"","address1":"37 East 28th Street","address2":"Suite 201","zip_code":"10016","city":"New York","state_code":"NY","country_code":"USA","location":{"type":"Point","coordinates":[-73.98458,40.74385]}},{"name":"Songza","category_code":"music","description":"","address1":"526 46th Ave","address2":"2nd Floor","zip_code":"11101","city":"Long Island City","state_code":"NY","country_code":"USA","location":{"type":"Point","coordinates":[-73.9549182,40.7473113]}},{"name":"Hunch","category_code":"web","description":"","address1":"54 West 21st. Street...","address2":"","zip_code":"10010","city":"New York","state_code":"NY","country_code":"USA","location":{"type":"Point","coordinates":[-73.993182,40.741179]}},{"name":"LetMeGo","category_code":"ecommerce","description":"General Assembly","address1":"902 Broadway","address2":"4th Floor","zip_code":"10010","city":"New York","state_code":"NY","country_code":"USA","location":{"type":"Point","coordinates":[-73.9909181,40.7421061]}},{"name":"FremantleMedia Ventures","category_code":"games_video","description":"New York Office","address1":"28 East 28th Street","address2":"9th Floor","zip_code":"10016","city":"New York","state_code":"NY","country_code":"USA","location":{"type":"Point","coordinates":[-73.9855424,40.7439449]}},{"name":"Bandsintown","category_code":"music","description":"New York Headquarters","address1":"215 Lexington Ave","address2":"","zip_code":"10016","city":"New York","state_code":"NY","country_code":"USA","location":{"type":"Point","coordinates":[-73.980128,40.745337]}},{"name":"Saavn","category_code":"games_video","description":"Corporate Headquarters","address1":"","address2":"","zip_code":"10016","city":"New York","state_code":"NY","country_code":"USA","location":{"type":"Point","coordinates":[-73.98618,40.743877]}},{"name":"[212]Media","category_code":"games_video","description":"","address1":"72 Madison Avenue","address2":"","zip_code":"","city":"New York","state_code":"NY","country_code":"USA","location":{"type":"Point","coordinates":[-73.98618,40.743877]}},{"name":"Infor","category_code":"enterprise","description":"HQ","address1":"641 Avenue of the Americas","address2":"","zip_code":"10011","city":"New York","state_code":"NY","country_code":"USA","location":{"type":"Point","coordinates":[-73.9947229,40.740976]}},{"name":"Inform Technologies","category_code":"web","description":"New York office","address1":"44 East 30th Street","address2":"11th Floor","zip_code":"10016","city":"New York","state_code":"NY","country_code":"USA","location":{"type":"Point","coordinates":[-73.983963,40.744639]}},{"name":"Answerology","category_code":"web","description":null,"address1":"561 Hudson Street","address2":"Suite 15","zip_code":"10014","city":"New York","state_code":"NY","country_code":"USA","location":{"type":"Point","coordinates":[-74.006179,40.735537]}},{"name":"Milabra","category_code":null,"description":"","address1":"220 Fifth Ave.","address2":"20th floor","zip_code":"10001","city":"New York","state_code":"NY","country_code":"USA","location":{"type":"Point","coordinates":[-73.9880796,40.743616]}},{"name":"Bluewolf","category_code":"consulting","description":"Worldwide Headquarters","address1":"11 East 26th Street","address2":"21st Floor","zip_code":"10010","city":"New York","state_code":"NY","country_code":"USA","location":{"type":"Point","coordinates":[-73.9880796,40.743616]}},{"name":"stickK","category_code":"web","description":null,"address1":"39 East 30th Street","address2":"","zip_code":"10016","city":"New York","state_code":"NY","country_code":"USA","location":{"type":"Point","coordinates":[-73.983843,40.744837]}},{"name":"Urgent Career","category_code":"analytics","description":"Corporate Headquarters","address1":"450 Park Ave South","address2":"9th Floor","zip_code":"10016","city":"New York","state_code":"NY","country_code":"USA","location":{"type":"Point","coordinates":[-73.983229,40.745003]}},{"name":"Yodle","category_code":"advertising","description":"New York Office (HQ)","address1":"50 West 23rd Street","address2":"Suite 401","zip_code":"10010","city":"New York","state_code":"NY","country_code":"USA","location":{"type":"Point","coordinates":[-73.9918126,40.742459]}},{"name":"Mimeo","category_code":"web","description":null,"address1":"460 Park Avenue South","address2":"","zip_code":"10016","city":"New York","state_code":"NY","country_code":"USA","location":{"type":"Point","coordinates":[-73.982807,40.745216]}},{"name":"Cognitive Match","category_code":"advertising","description":"New York (HQ)","address1":"475 Park Ave S","address2":"","zip_code":"10016","city":"New York","state_code":"NY","country_code":"USA","location":{"type":"Point","coordinates":[-73.9822211,40.7454098]}},{"name":"Transit Treasure","category_code":"advertising","description":"Headquarters","address1":"311 East 38th Street","address2":"Suite 19B","zip_code":"10016","city":"New York","state_code":"NY","country_code":"USA","location":{"type":"Point","coordinates":[-73.973243,40.74724]}},{"name":"findingDulcinea","category_code":"search","description":"","address1":"475 Park Ave. S","address2":"","zip_code":"10016","city":"New York","state_code":"NY","country_code":"USA","location":{"type":"Point","coordinates":[-73.9823449,40.7455579]}},{"name":"Imaginova","category_code":"ecommerce","description":"Corporate Offices","address1":"470 Park Avenue South","address2":"","zip_code":"10016","city":"New York","state_code":"NY","country_code":"USA","location":{"type":"Point","coordinates":[-73.9826042,40.7454971]}},{"name":"[x+1]","category_code":"enterprise","description":"HQ","address1":"315 Park Avenue South","address2":"12th floor","zip_code":"10010","city":"New York","state_code":"NY","country_code":"USA","location":{"type":"Point","coordinates":[-73.982624,40.7455068]}},{"name":"[x+1]","category_code":"enterprise","description":"HQ","address1":"315 Park Avenue South","address2":"12th floor","zip_code":"10010","city":"New York","state_code":"NY","country_code":"USA","location":{"type":"Point","coordinates":[-73.982624,40.7455068]}},{"name":"Aditall","category_code":"enterprise","description":"","address1":"27 W. 24th St.","address2":"","zip_code":"10010","city":"New York","state_code":"NY","country_code":"USA","location":{"type":"Point","coordinates":[-73.990853,40.743165]}},{"name":"Ticketpredator","category_code":"web","description":"","address1":"1133 Broadway","address2":"Suite 706","zip_code":"10010","city":"New York","state_code":"NY","country_code":"USA","location":{"type":"Point","coordinates":[-73.9890149,40.7438356]}},{"name":"iPharro Media","category_code":"software","description":"US Office","address1":"1133 Broadway","address2":"Suite 706","zip_code":"10010","city":"New York","state_code":"NY","country_code":"USA","location":{"type":"Point","coordinates":[-73.9890149,40.7438356]}},{"name":"NFL","category_code":"sports","description":"HQ","address1":"345 Park Ave","address2":"","zip_code":"10054","city":"New York","state_code":"NY","country_code":"USA","location":{"type":"Point","coordinates":[-73.9822265,40.7457865]}},{"name":"BBE","category_code":"advertising","description":"","address1":"245 Fifth Avenue","address2":"21st Floor","zip_code":"10016","city":"New York","state_code":"NY","country_code":"USA","location":{"type":"Point","coordinates":[-73.9874008,40.7445343]}},{"name":"BeenVerified","category_code":"other","description":"","address1":"307 5th Avenue","address2":"16th Floor","zip_code":"10016","city":"New York","state_code":"NY","country_code":"USA","location":{"type":"Point","coordinates":[-73.987949,40.744402]}},{"name":"Sparkpr","category_code":"public_relations","description":"New York","address1":"30 West 26th Street","address2":"3rd Floor","zip_code":"10010","city":"New York","state_code":"NY","country_code":"USA","location":{"type":"Point","coordinates":[-73.989586,40.7440142]}},{"name":"IntheGlo","category_code":"ecommerce","description":"Headquarters","address1":"244 5th Avenue","address2":"Suite 2LP","zip_code":"10001","city":"New York","state_code":"NY","country_code":"USA","location":{"type":"Point","coordinates":[-73.987764,40.744618]}},{"name":"Yipit","category_code":"web","description":"HQ","address1":"3 W 18th","address2":"2nd Floor","zip_code":"10011","city":"New York","state_code":"NY","country_code":"USA","location":{"type":"Point","coordinates":[-73.987764,40.744618]}},{"name":"Aghreni Technologies","category_code":"software","description":"USA Office","address1":"246, Fifth Avenue","address2":"Ste. 301","zip_code":"10001","city":"New York","state_code":"NY","country_code":"USA","location":{"type":"Point","coordinates":[-73.988071,40.744549]}},{"name":"ZepFrog Corp","category_code":"public_relations","description":"","address1":"15 West 26th Street","address2":"","zip_code":"10010","city":"New York","state_code":"NY","country_code":"USA","location":{"type":"Point","coordinates":[-73.989505,40.744201]}},{"name":"Next Jump","category_code":"ecommerce","description":"Corporate HQ","address1":"261 Fifth Avenue","address2":"8th Floor","zip_code":"10016","city":"New York","state_code":"NY","country_code":"USA","location":{"type":"Point","coordinates":[-73.9869549,40.7451545]}},{"name":"Right Media","category_code":"advertising","description":"Right Media LLC","address1":"45 West 18th Street","address2":"6th Floor","zip_code":"10011","city":"New York","state_code":"NY","country_code":"USA","location":{"type":"Point","coordinates":[-73.982607,40.74632]}},{"name":"Conductor","category_code":"search","description":"Corporate Headquarters","address1":"2 Park Ave","address2":"","zip_code":"10016","city":"New York","state_code":"NY","country_code":"USA","location":{"type":"Point","coordinates":[-73.982596,40.746332]}},{"name":"8coupons","category_code":"web","description":"","address1":"","address2":"","zip_code":"10011","city":"New York","state_code":"NY","country_code":"USA","location":{"type":"Point","coordinates":[-73.9934288,40.7431477]}},{"name":"Gameloft","category_code":"mobile","description":"New York Office","address1":"45 W. 25th Street","address2":"9th Floor","zip_code":"10010","city":"New York","state_code":"NY","country_code":"USA","location":{"type":"Point","coordinates":[-73.991034,40.744034]}},{"name":"Synthesio","category_code":"software","description":"US Office","address1":"116 West 23rd St","address2":"","zip_code":"10011","city":"New York","state_code":"NY","country_code":"USA","location":{"type":"Point","coordinates":[-73.9935011,40.7431836]}},{"name":"Networked Insights","category_code":"analytics","description":"New York Offices","address1":"277 5th Avenue","address2":"6th Floor","zip_code":"10016","city":"New York","state_code":"NY","country_code":"USA","location":{"type":"Point","coordinates":[-73.986243,40.745559]}},{"name":"Catchafire","category_code":"web","description":"","address1":"31 East 32nd Street","address2":"","zip_code":"10016","city":"New York","state_code":null,"country_code":"USA","location":{"type":"Point","coordinates":[-73.983171,40.746417]}},{"name":"For Your Imagination","category_code":"games_video","description":"HQ","address1":"22 West 27th Street","address2":"6th Floor","zip_code":"10001","city":"New York","state_code":"NY","country_code":"USA","location":{"type":"Point","coordinates":[-73.989698,40.744594]}},{"name":"New York Designs","category_code":"network_hosting","description":null,"address1":"4530 41 Street","address2":"","zip_code":"11104","city":"New York","state_code":"NY","country_code":"USA","location":{"type":"Point","coordinates":[-73.923427,40.743264]}},{"name":"Willard John Thomas Associates","category_code":"consulting","description":"Headquarters","address1":"14 Wall Street","address2":"","zip_code":"10005","city":"New York","state_code":"NY","country_code":"USA","location":{"type":"Point","coordinates":[-73.980064,40.74727]}},{"name":"Dice Holdings","category_code":"web","description":"Dice Holdings","address1":"","address2":"","zip_code":"10016","city":"New York","state_code":"NY","country_code":"USA","location":{"type":"Point","coordinates":[-73.9800645,40.74727]}},{"name":"Gilt Groupe","category_code":"fashion","description":"New York Office","address1":"2 Park Ave Fl 4","address2":"","zip_code":"10016-5602","city":"New York","state_code":"NY","country_code":"USA","location":{"type":"Point","coordinates":[-73.9800645,40.74727]}},{"name":"Portero","category_code":"ecommerce","description":"Manhattan","address1":"275 Madison Ave # 1201","address2":"","zip_code":"10016","city":"New York","state_code":"NY","country_code":"USA","location":{"type":"Point","coordinates":[-73.9800645,40.74727]}},{"name":"Carbonmade","category_code":"web","description":"World Headquarters","address1":"187 Lafayette St.","address2":"4th Floor","zip_code":"10013","city":"New York","state_code":"NY","country_code":"USA","location":{"type":"Point","coordinates":[-73.9800645,40.74727]}},{"name":"Xandros","category_code":"software","description":"","address1":"149 Madison Ave","address2":"Suite 302","zip_code":"10016","city":"New York","state_code":"NY","country_code":"USA","location":{"type":"Point","coordinates":[-73.983972,40.746368]}},{"name":"Zemoga","category_code":"web","description":"New York Office","address1":"56 West 22nd Street","address2":"10th Floor","zip_code":"11217","city":"New York","state_code":"NY","country_code":"USA","location":{"type":"Point","coordinates":[-73.989947,40.744697]}},{"name":"Subway Crush","category_code":"web","description":null,"address1":"119 W. 23rd St.","address2":"Suite 508","zip_code":"10011","city":"New York","state_code":"NY","country_code":"USA","location":{"type":"Point","coordinates":[-73.993274,40.743563]}},{"name":"Lolz","category_code":"web","description":"New York","address1":"119 W. 23rd St","address2":"Suite 508","zip_code":"10011","city":"New York","state_code":"NY","country_code":"USA","location":{"type":"Point","coordinates":[-73.993274,40.743563]}},{"name":"StyleCard","category_code":"web","description":"Headquarters","address1":"61 Jane Street","address2":"","zip_code":"10014","city":"New York","state_code":"NY","country_code":"USA","location":{"type":"Point","coordinates":[-74.0058,40.738137]}},{"name":"StyleCaster","category_code":"web","description":"","address1":"49 W 27th St Uppr A","address2":"","zip_code":"10001-6936","city":"New York City","state_code":"NY","country_code":"USA","location":{"type":"Point","coordinates":[-73.9900984,40.7450497]}},{"name":"Tripology","category_code":"web","description":"","address1":"160 Madison Avenue","address2":"6th Floor","zip_code":"10016","city":"New York","state_code":"NY","country_code":"USA","location":{"type":"Point","coordinates":[-73.983969,40.746883]}},{"name":"Samepoint","category_code":"web","description":"Sales and Biz Dev Office","address1":"245 West 17th St.","address2":"4th Fl.","zip_code":"10011","city":"New York","state_code":"NY","country_code":"USA","location":{"type":"Point","coordinates":[-73.999675,40.741441]}},{"name":"Samepoint","category_code":"web","description":"Sales and Biz Dev Office","address1":"245 West 17th St.","address2":"4th Fl.","zip_code":"10011","city":"New York","state_code":"NY","country_code":"USA","location":{"type":"Point","coordinates":[-73.999675,40.741441]}},{"name":"BeliefNetworks","category_code":"software","description":"Biz Dev & Sales","address1":"162 Madison Ave.","address2":"","zip_code":"10016","city":"New York","state_code":"NY","country_code":"USA","location":{"type":"Point","coordinates":[-73.983926,40.746944]}},{"name":"CyberSynchs","category_code":"mobile","description":"","address1":"44 West 28th street","address2":"8th floor","zip_code":"10001","city":"NYC","state_code":"NY","country_code":"USA","location":{"type":"Point","coordinates":[-73.990033,40.745534]}},{"name":"WebMD","category_code":"web","description":"HQ","address1":"111 8th Ave","address2":"7th Floor","zip_code":"10011","city":"New York","state_code":"NY","country_code":"USA","location":{"type":"Point","coordinates":[-74.0015261,40.7410886]}},{"name":"DoubleClick","category_code":"advertising","description":"","address1":"76 Ninth Avenue","address2":"4th Floor","zip_code":"10011","city":"New York","state_code":"NY","country_code":"USA","location":{"type":"Point","coordinates":[-74.001526,40.741089]}},{"name":"FoxyMelody","category_code":"web","description":null,"address1":"270 W 17th St.","address2":"#6F","zip_code":"10011","city":"New York","state_code":"NY","country_code":"USA","location":{"type":"Point","coordinates":[-74.000709,40.74149]}},{"name":"TasteSpace","category_code":"web","description":"","address1":"185 Madison Ave","address2":"Suite 1602","zip_code":"10016","city":"New York","state_code":"NY","country_code":"USA","location":{"type":"Point","coordinates":[-73.982544,40.747819]}},{"name":"Boxee","category_code":"software","description":"US Headquarters","address1":"122 West 26th Street","address2":"8th Floor","zip_code":"10001","city":"New York","state_code":"NY","country_code":"USA","location":{"type":"Point","coordinates":[-73.992637,40.745064]}},{"name":"HeadStrong Brain Gym","category_code":"software","description":null,"address1":"","address2":"","zip_code":"12572","city":"New York","state_code":"NY","country_code":"USA","location":{"type":"Point","coordinates":[-73.968173,40.75033]}},{"name":"YCD Multimedia","category_code":"software","description":"","address1":"104 West 27th Street","address2":"7th Floor","zip_code":"NY 10001","city":"New York","state_code":"NY","country_code":"USA","location":{"type":"Point","coordinates":[-73.991674,40.745454]}},{"name":"GEN ART","category_code":"web","description":"Corporate Headquarters","address1":"627 N. La Peer Drive","address2":"","zip_code":"90069","city":"West Hollywood","state_code":"CA","country_code":"USA","location":{"type":"Point","coordinates":[-73.993179,40.744943]}},{"name":"Sailthru","category_code":"public_relations","description":"New York","address1":"160 Varick St.","address2":"12th floor","zip_code":"10013","city":"New York","state_code":"NY","country_code":"USA","location":{"type":"Point","coordinates":[-74.008159,40.738143]}},{"name":"Homethinking","category_code":"ecommerce","description":"","address1":"PO Box 4668 #9550","address2":"","zip_code":"10163","city":"New York","state_code":"NY","country_code":"USA","location":{"type":"Point","coordinates":[-73.968145,40.750567]}},{"name":"WeTxt","category_code":"mobile","description":"New York","address1":"330 W. 15th St.","address2":"Suite 4B","zip_code":"10011","city":"New York","state_code":"NY","country_code":"USA","location":{"type":"Point","coordinates":[-74.003466,40.740837]}},{"name":"Fabian Rossano Studio","category_code":"other","description":"studio","address1":"348 West 14th Street","address2":"Fl 3","zip_code":"10014","city":"New York","state_code":"NY","country_code":"USA","location":{"type":"Point","coordinates":[-74.004777,40.740371]}},{"name":"Plentitube","category_code":"ecommerce","description":null,"address1":"108 E. 38th St.","address2":"Suite 1402","zip_code":"10016","city":"New York","state_code":"NY","country_code":"USA","location":{"type":"Point","coordinates":[-73.978733,40.749277]}},{"name":"Qtrax","category_code":"games_video","description":null,"address1":"211 Madison Avenue","address2":"# 28B","zip_code":"10016","city":"New York","state_code":"NY","country_code":"USA","location":{"type":"Point","coordinates":[-73.981947,40.748641]}},{"name":"Live2Support","category_code":"software","description":"US Crossponding Address","address1":"47-47 36th Street","address2":"Suite # 20442","zip_code":"11101","city":"Long Island City","state_code":"NY","country_code":"USA","location":{"type":"Point","coordinates":[-73.9815793,40.7488761]}},{"name":"RRD USA","category_code":"mobile","description":null,"address1":"350 5th Avenue, Suite 3600","address2":"","zip_code":"10118","city":"New York","state_code":"NY","country_code":"USA","location":{"type":"Point","coordinates":[-73.984606,40.748342]}},{"name":"Sky Bird Travel  Tours","category_code":"other","description":"","address1":"350 Fifth Avenue","address2":"Suite 610","zip_code":"10118","city":"New York","state_code":"NY","country_code":"USA","location":{"type":"Point","coordinates":[-73.984615,40.7483487]}},{"name":"Enversa Companies","category_code":"web","description":"New York Office","address1":"622 Third Ave","address2":"11th Floor","zip_code":"10017","city":"NYC","state_code":"NY","country_code":"USA","location":{"type":"Point","coordinates":[-73.976018,40.750179]}},{"name":"Axon Solutions","category_code":"software","description":"","address1":"15 Exchange Place","address2":"Suite 730","zip_code":"07302","city":"Jersey City","state_code":"NJ","country_code":"USA","location":{"type":"Point","coordinates":[-74.033251,40.715887]}},{"name":"TOMOS Software","category_code":"software","description":"Headquarters","address1":"360 Lexington Avenue","address2":"","zip_code":"10017","city":"New York","state_code":"NY","country_code":"USA","location":{"type":"Point","coordinates":[-73.9768083,40.7504268]}},{"name":"Athena Archiver","category_code":"software","description":null,"address1":"130 West 29th Street","address2":"6th Floor","zip_code":"10001","city":"New York","state_code":"NY","country_code":"USA","location":{"type":"Point","coordinates":[-73.991562,40.747003]}},{"name":"Yellow SEO","category_code":"consulting","description":"New York Office","address1":"130 W 29th Street","address2":"6 Fl","zip_code":"10001","city":"New York","state_code":"NY","country_code":"USA","location":{"type":"Point","coordinates":[-73.991562,40.747003]}},{"name":"Ramp Up Tech","category_code":"consulting","description":"New York Office","address1":"153 West 27th Street","address2":"Suite 300","zip_code":"10001","city":"New York","state_code":"NY","country_code":"USA","location":{"type":"Point","coordinates":[-73.993035,40.746514]}},{"name":"Bloglovin","category_code":"web","description":"Bloglovin' US","address1":"416 W 13th St","address2":"Suite 203","zip_code":"10014","city":"New York","state_code":"NY","country_code":"USA","location":{"type":"Point","coordinates":[-74.007199,40.740308]}},{"name":"BizAps","category_code":"web","description":"BizAps US","address1":"One Exchange Place","address2":"Suite 1000","zip_code":"07302","city":"Jersey City","state_code":"NJ","country_code":"USA","location":{"type":"Point","coordinates":[-74.033907,40.715953]}},{"name":"Bitly","category_code":"web","description":"","address1":"","address2":"","zip_code":"","city":"New York","state_code":"NY","country_code":"USA","location":{"type":"Point","coordinates":[-74.00721,40.74034]}},{"name":"betaworks","category_code":"social","description":"betaworks","address1":"416 W 13th Suite 203","address2":"","zip_code":"10014","city":"New York","state_code":"NY","country_code":"USA","location":{"type":"Point","coordinates":[-74.00721,40.74034]}},{"name":"Social Median","category_code":"web","description":"Corporate Headquarters","address1":"11 E. 36th St.","address2":"#705","zip_code":"10016","city":"New York","state_code":"NY","country_code":"USA","location":{"type":"Point","coordinates":[-73.982575,40.74963]}},{"name":"Unisfair","category_code":"enterprise","description":"New York Office","address1":"1250 Broadway","address2":"31st floor","zip_code":"10001","city":"New York","state_code":"NY","country_code":"USA","location":{"type":"Point","coordinates":[-73.988154,40.7482]}},{"name":"Commission Junction","category_code":"advertising","description":"New York Office","address1":"370 Lexington Ave.","address2":"Suite 908","zip_code":"10017","city":"New York","state_code":"NY","country_code":"USA","location":{"type":"Point","coordinates":[-73.9765095,40.7508577]}},{"name":"Neocleus","category_code":"enterprise","description":"Corporate Headquarters","address1":"One Exchange Place","address2":"Suite 1000","zip_code":"07302","city":"Jersey City","state_code":"NJ","country_code":"USA","location":{"type":"Point","coordinates":[-74.033872,40.716438]}},{"name":"Datapipe","category_code":"network_hosting","description":"USA Corporate Office","address1":"10 Exchange Place","address2":"","zip_code":"07302","city":"Jersey City","state_code":"NJ","country_code":"USA","location":{"type":"Point","coordinates":[-74.03392,40.71644]}},{"name":"MLB Advanced Media","category_code":"web","description":"","address1":"75 9th Ave","address2":"","zip_code":"10011","city":"New York","state_code":"NY","country_code":"USA","location":{"type":"Point","coordinates":[-74.0047466,40.7418877]}},{"name":"OneBigPlanet","category_code":"enterprise","description":"","address1":"244 Madison Avenue","address2":"#729","zip_code":"10016","city":"New York","state_code":"NY","country_code":"USA","location":{"type":"Point","coordinates":[-73.9812417,40.7501311]}},{"name":"ChallengePost","category_code":"web","description":"","address1":"425 West 13th Street","address2":"Suite 504","zip_code":"10014","city":"New York","state_code":"NY","country_code":"USA","location":{"type":"Point","coordinates":[-74.00717,40.7408042]}},{"name":"Google","category_code":"search","description":"Google New York","address1":"76 Ninth Avenue","address2":"4th Floor","zip_code":"10011","city":"New York","state_code":"NY","country_code":"USA","location":{"type":"Point","coordinates":[-74.004489,40.74222]}},{"name":"KIT digital","category_code":"enterprise","description":"New York Office","address1":"26 W 17th Street","address2":"","zip_code":"10011","city":"New York","state_code":"NY","country_code":"USA","location":{"type":"Point","coordinates":[-73.971655,40.751816]}},{"name":"Undertone","category_code":"advertising","description":"NY - Headquarters","address1":"340 Madison","address2":"8th Floor","zip_code":"10178","city":"New York","state_code":"NY","country_code":"USA","location":{"type":"Point","coordinates":[-73.9779759,40.7509033]}},{"name":"Synesis IT","category_code":"consulting","description":"Synesis IT","address1":"43 W 33rd St","address2":"","zip_code":"10001","city":"New York","state_code":"NY","country_code":"USA","location":{"type":"Point","coordinates":[-73.987106,40.748873]}},{"name":"Datum Legal","category_code":"software","description":"","address1":"117 west 7th Street","address2":"1 Floor","zip_code":"10017","city":"New York","state_code":"NY","country_code":"USA","location":{"type":"Point","coordinates":[-73.972365,40.751804]}},{"name":"Integreon","category_code":"legal","description":"","address1":"219 East 44th Street","address2":"5th Floor","zip_code":"10018","city":"","state_code":"NY","country_code":"USA","location":{"type":"Point","coordinates":[-73.972365,40.751804]}},{"name":"IrishCentral","category_code":"public_relations","description":"New York","address1":"875 Sixth Avenue","address2":"","zip_code":"10001","city":"New York","state_code":"NY","country_code":"USA","location":{"type":"Point","coordinates":[-73.989276,40.74828]}},{"name":"acerno","category_code":"web","description":"aCerno New York","address1":"122 E. 42nd st,","address2":"suite 805","zip_code":"10168","city":"New York","state_code":"NY","country_code":"USA","location":{"type":"Point","coordinates":[-73.975857,40.751363]}},{"name":"Burnlounge","category_code":"web","description":null,"address1":"304 Hudson St., 7th Floor","address2":null,"zip_code":"10013","city":"New York","state_code":"NY","country_code":"USA","location":{"type":"Point","coordinates":[-73.993553,40.746953]}},{"name":"Q-go","category_code":"software","description":"Q-go USA","address1":"100 Park Avenue","address2":"","zip_code":"NY 10017","city":"New York","state_code":"NY","country_code":"USA","location":{"type":"Point","coordinates":[-73.978471,40.751139]}},{"name":"Good Technology","category_code":"mobile","description":"","address1":"100 Park Avenue","address2":"Suite 1600","zip_code":"10017","city":"New York","state_code":"NY","country_code":"USA","location":{"type":"Point","coordinates":[-73.978807,40.7511339]}},{"name":"Accoona","category_code":"search","description":null,"address1":"101 Hudson Street","address2":"Suite 3501","zip_code":"07302","city":"Jersey City","state_code":null,"country_code":"USA","location":{"type":"Point","coordinates":[-74.03507,40.716144]}},{"name":"RavenPack","category_code":"software","description":"US Sales Office","address1":"100 Park Ave. Suite 1600","address2":"","zip_code":"10017","city":"New York","state_code":"NY","country_code":"USA","location":{"type":"Point","coordinates":[-73.978887,40.751293]}},{"name":"Pluribo","category_code":"software","description":"","address1":"100 Park Ave","address2":"16th Floor","zip_code":"10017","city":"New York","state_code":"NY","country_code":"USA","location":{"type":"Point","coordinates":[-73.978887,40.751293]}},{"name":"FinAnalytica","category_code":"software","description":"","address1":"100 Park Avenue, 16th Floor","address2":"","zip_code":"10017","city":"New York","state_code":"NY","country_code":"USA","location":{"type":"Point","coordinates":[-73.978887,40.751293]}},{"name":"WPP","category_code":"public_relations","description":"","address1":"100 Park Avenue","address2":"","zip_code":"10017-5529","city":"New York","state_code":"NY","country_code":"USA","location":{"type":"Point","coordinates":[-73.9779465,40.751513]}},{"name":"WPP","category_code":"public_relations","description":"","address1":"100 Park Avenue","address2":"","zip_code":"10017-5529","city":"New York","state_code":"NY","country_code":"USA","location":{"type":"Point","coordinates":[-73.9779465,40.751513]}},{"name":"Marvel Entertainment","category_code":"games_video","description":"Marvel Entertainment Inc","address1":"417 5th. Avenue","address2":"","zip_code":"10016","city":"New York","state_code":"NY","country_code":"USA","location":{"type":"Point","coordinates":[-73.982713,40.750576]}},{"name":"RankAbove","category_code":"software","description":"RankAbove USA","address1":"345 7th Ave","address2":"Suite 503","zip_code":"10001","city":"New York","state_code":"NY","country_code":"USA","location":{"type":"Point","coordinates":[-73.992402,40.748047]}},{"name":"WeShow","category_code":"games_video","description":null,"address1":null,"address2":null,"zip_code":"10017","city":"New York","state_code":"NY","country_code":"USA","location":{"type":"Point","coordinates":[-73.973072,40.752516]}},{"name":"LucidMedia","category_code":"advertising","description":"Lucid Media NY","address1":"274 Madison Avenue","address2":"Suite 701","zip_code":"10016","city":"New York","state_code":"NY","country_code":"USA","location":{"type":"Point","coordinates":[-73.980739,40.751336]}},{"name":"Scanbuy","category_code":"enterprise","description":"","address1":"10 East 39th Street","address2":"10th Floor","zip_code":"10016","city":"New York","state_code":"NY","country_code":"USA","location":{"type":"Point","coordinates":[-73.9815333,40.7512062]}},{"name":"Jumptap","category_code":"mobile","description":"Jumptap New York","address1":"38 East 32nd Street","address2":"11th Floor","zip_code":"10016","city":"New York City","state_code":"NY","country_code":"USA","location":{"type":"Point","coordinates":[-73.980305,40.751478]}},{"name":"Jumptap","category_code":"mobile","description":"Jumptap New York","address1":"38 East 32nd Street","address2":"11th Floor","zip_code":"10016","city":"New York City","state_code":"NY","country_code":"USA","location":{"type":"Point","coordinates":[-73.980305,40.751478]}},{"name":"The Promo Hut","category_code":"other","description":"","address1":"1123 McDonald Avenue","address2":"","zip_code":"11230","city":"Brooklyn","state_code":"NY","country_code":"USA","location":{"type":"Point","coordinates":[-73.9762361,40.6258576]}},{"name":"Altaine","category_code":"mobile","description":"","address1":"","address2":"","zip_code":"","city":"Manhatton","state_code":null,"country_code":"USA","location":{"type":"Point","coordinates":[-73.987977,40.749884]}},{"name":"Crispy Gamer","category_code":"games_video","description":"","address1":"35 West 36th Street","address2":"Suite 4W","zip_code":"10018","city":"New York","state_code":"NY","country_code":"USA","location":{"type":"Point","coordinates":[-73.985273,40.750597]}},{"name":"FirstRain","category_code":"analytics","description":"FirstRain New York","address1":"60 East 42nd Street","address2":"Suite 3030","zip_code":"10165","city":"New York","state_code":"NY","country_code":"USA","location":{"type":"Point","coordinates":[-73.9786947,40.7521126]}},{"name":"AdoTube","category_code":"advertising","description":"New York Office","address1":"915 Broadway","address2":"Suite 1301","zip_code":"10010","city":"New York","state_code":"NY","country_code":"USA","location":{"type":"Point","coordinates":[-73.97593,40.752672]}},{"name":"Agoracom","category_code":"enterprise","description":"USA Office","address1":"420 Lexington Avenue","address2":"Suite 2620","zip_code":"10170","city":"New York","state_code":"NY","country_code":"USA","location":{"type":"Point","coordinates":[-73.97593,40.752672]}},{"name":"Major League Gaming","category_code":"games_video","description":"Corporate Headquarters","address1":"3 Park Avenue","address2":"32nd Floor","zip_code":"10016","city":"New York","state_code":"NY","country_code":"USA","location":{"type":"Point","coordinates":[-73.97593,40.752672]}},{"name":"Secure Fortress","category_code":"network_hosting","description":"New York","address1":"420 Lexington Ave, Suite 450","address2":"","zip_code":"10170","city":"New York","state_code":"NY","country_code":"USA","location":{"type":"Point","coordinates":[-73.97593,40.752672]}},{"name":"Strategist News","category_code":"web","description":"","address1":"","address2":"","zip_code":"10001","city":"New York","state_code":"NY","country_code":"USA","location":{"type":"Point","coordinates":[-73.9918181,40.7489381]}},{"name":"ArtNeighbor","category_code":"web","description":"World Headquarters","address1":"","address2":"","zip_code":"10001","city":"New York City","state_code":"NY","country_code":"USA","location":{"type":"Point","coordinates":[-73.9918181,40.7489381]}},{"name":"Pipeline Financial Group","category_code":"enterprise","description":"Corporate Headquarters","address1":"60 East 42nd Street","address2":"Suite 624","zip_code":"10165","city":"New York","state_code":"NY","country_code":"USA","location":{"type":"Point","coordinates":[-73.9783331,40.7524135]}},{"name":"Adknowledge","category_code":"advertising","description":"Adknowledge New York","address1":"7 Penn Plaza","address2":"370 Seventh Ave., 17th Fl.","zip_code":"10001","city":"New York","state_code":"NY","country_code":"USA","location":{"type":"Point","coordinates":[-73.992463,40.748901]}},{"name":"Behance","category_code":"web","description":"","address1":"","address2":"","zip_code":"10012","city":"New York","state_code":"NY","country_code":"USA","location":{"type":"Point","coordinates":[-74.004592,40.74406]}},{"name":"Fotki","category_code":"web","description":"Fotki HQ","address1":"13071 240 Street","address2":"","zip_code":"V4R 0A5","city":"Maple Ridge, BC","state_code":null,"country_code":"CAN","location":{"type":"Point","coordinates":[-73.985833,40.750823]}},{"name":"Simparel","category_code":"software","description":"","address1":"53 West 36th Street","address2":"11th Floor","zip_code":"10018","city":"New York","state_code":"NY","country_code":"USA","location":{"type":"Point","coordinates":[-73.985833,40.750823]}},{"name":"Converseon","category_code":"consulting","description":"","address1":"53 West 36th,","address2":"8th Floor","zip_code":"10018","city":"New York","state_code":"NY","country_code":"USA","location":{"type":"Point","coordinates":[-73.985833,40.750823]}},{"name":"ecomii","category_code":"cleantech","description":"World Headquarters","address1":"448 West 16th Street","address2":"5th Floor","zip_code":"10011","city":"New York","state_code":"NY","country_code":"USA","location":{"type":"Point","coordinates":[-74.006513,40.743157]}},{"name":"Arc90","category_code":"web","description":"Office","address1":"747 3rd Ave","address2":"30th Floor","zip_code":"10017","city":"New York City","state_code":"NY","country_code":"USA","location":{"type":"Point","coordinates":[-73.9724886,40.7534549]}},{"name":"Interpolls","category_code":null,"description":"Eastern Region","address1":"747 Third Ave.","address2":"Suite 25A","zip_code":"10017","city":"New York","state_code":"NY","country_code":"USA","location":{"type":"Point","coordinates":[-73.9724886,40.7534549]}},{"name":"BarterQuest","category_code":"web","description":"New York Office","address1":"231 W 29th street","address2":"","zip_code":"10001","city":"New York","state_code":"NY","country_code":"USA","location":{"type":"Point","coordinates":[-73.994203,40.748634]}},{"name":"American Higher Education Development","category_code":"other","description":"Corporate Office","address1":"Two Penn Plaza","address2":"Suite 1500","zip_code":"10121","city":"New York","state_code":"NY","country_code":"USA","location":{"type":"Point","coordinates":[-73.991662,40.749559]}},{"name":"Relegence","category_code":"search","description":"","address1":"2 Penn Plaza","address2":"Suite 1960","zip_code":"10121","city":"New York","state_code":"NY","country_code":"USA","location":{"type":"Point","coordinates":[-73.9916617,40.7495594]}},{"name":"CollegeClickTV","category_code":"games_video","description":"","address1":"One Penn Plaza","address2":"Suite 5328","zip_code":"10119","city":"New York","state_code":"NY","country_code":"USA","location":{"type":"Point","coordinates":[-73.9916617,40.7495594]}},{"name":"LogLogic","category_code":"security","description":"New York Office","address1":"5 Penn Plaza","address2":"23rd Floor","zip_code":"10001","city":"New York","state_code":"NY","country_code":"USA","location":{"type":"Point","coordinates":[-73.9916486,40.749577]}},{"name":"Traiana","category_code":null,"description":"","address1":"51 East 42nd St.","address2":"10th floor","zip_code":"10017","city":"New York","state_code":"NY","country_code":"USA","location":{"type":"Point","coordinates":[-73.978324,40.752844]}},{"name":"KickApps","category_code":"enterprise","description":"Headquarters","address1":"26 W 17th Street","address2":"2nd Floor","zip_code":"10011","city":"New York","state_code":"NY","country_code":"USA","location":{"type":"Point","coordinates":[-73.9843328,40.7516611]}},{"name":"RMG Connect","category_code":"consulting","description":"HQ","address1":"466 Lexington Avenue","address2":"","zip_code":"10017","city":"New York","state_code":"NY","country_code":"USA","location":{"type":"Point","coordinates":[-73.974353,40.753772]}},{"name":"TMP Directional Marketing","category_code":"advertising","description":"Corporate Headquarters","address1":"317 Madison Ave.","address2":"Suite 2310","zip_code":"NY 10017","city":"New York","state_code":"NY","country_code":"USA","location":{"type":"Point","coordinates":[-73.9790822,40.7530803]}},{"name":"Corvil","category_code":"other","description":"New York","address1":"777 Third Ave.","address2":"Suite 21B","zip_code":"10017","city":"New York","state_code":"NY","country_code":"USA","location":{"type":"Point","coordinates":[-73.9711073,40.7547187]}},{"name":"SheZoom","category_code":"network_hosting","description":"","address1":"335 Madison Avenue","address2":"15th Floor","zip_code":"10017","city":"New York","state_code":"NY","country_code":"USA","location":{"type":"Point","coordinates":[-73.9785086,40.7538639]}},{"name":"Optimum Energy","category_code":"cleantech","description":"New York office","address1":"1370 Broadway","address2":"Suite 503","zip_code":"10018","city":"New York","state_code":"NY","country_code":"USA","location":{"type":"Point","coordinates":[-73.9875922,40.7518919]}},{"name":"TxVia","category_code":"finance","description":"Corporate Headquarters","address1":"340 Madison Ave.","address2":"3rd Floor","zip_code":"10173","city":"New York","state_code":"NY","country_code":"USA","location":{"type":"Point","coordinates":[-73.978852,40.753881]}},{"name":"Tzunami SharePoint migration","category_code":"software","description":"","address1":"245 Park Ave.","address2":"39th Floor","zip_code":"10167","city":"New York","state_code":"NY","country_code":"USA","location":{"type":"Point","coordinates":[-73.974674,40.754608]}},{"name":"Vringo","category_code":"software","description":"HQ","address1":"780 Third Avenue","address2":"Fifteenth Floor","zip_code":"10017","city":"New York","state_code":"NY","country_code":"USA","location":{"type":"Point","coordinates":[-73.9717364,40.7550005]}},{"name":"DreamFace Interactive","category_code":"enterprise","description":"Dreamface US","address1":"500 5th Ave.","address2":"Suite 55","zip_code":"10013","city":"New York","state_code":"NY","country_code":"USA","location":{"type":"Point","coordinates":[-73.980737,40.7537339]}},{"name":"Coleman Research Group","category_code":"software","description":"","address1":"1040 Avenue of the Americas","address2":"3rd Floor","zip_code":"10018","city":"New York","state_code":"NY","country_code":"USA","location":{"type":"Point","coordinates":[-73.985025,40.752953]}},{"name":"BountyJobs","category_code":"web","description":"World Headquarters","address1":"230 W 41st street","address2":"14th Floor","zip_code":"10036","city":"New York","state_code":"NY","country_code":"USA","location":{"type":"Point","coordinates":[-73.97917,40.754211]}},{"name":"Veotag","category_code":"web","description":null,"address1":"1040 Avenue of the Americas","address2":"24th Floor","zip_code":"10018","city":"New York","state_code":"NY","country_code":"USA","location":{"type":"Point","coordinates":[-73.98546,40.752957]}},{"name":"Atlantis Partners","category_code":"public_relations","description":"Atlantis New York","address1":"11 E. 44th Street","address2":"Suite 301","zip_code":"10017","city":"New York","state_code":"NY","country_code":"USA","location":{"type":"Point","coordinates":[-73.9789451,40.7543489]}},{"name":"MacArthur Associates","category_code":"other","description":"MacArthur New York","address1":"11 E. 44th St.","address2":"Suite 1700","zip_code":"10017","city":"New York","state_code":"NY","country_code":"USA","location":{"type":"Point","coordinates":[-73.9789451,40.7543489]}},{"name":"Napier Partners","category_code":"other","description":"Napier Partners","address1":"11 E. 44th Street","address2":"Suite 1200","zip_code":"10017","city":"New York","state_code":"NY","country_code":"USA","location":{"type":"Point","coordinates":[-73.9789451,40.7543489]}},{"name":"Workbridge Associates","category_code":"other","description":"NEW YORK","address1":"11 East 44th Street","address2":"Suite 1200","zip_code":"10017","city":"New York","state_code":"NY","country_code":"USA","location":{"type":"Point","coordinates":[-73.9789451,40.7543489]}},{"name":"Odeo","category_code":"web","description":null,"address1":"500 Fifth Avenue","address2":"Suite 1650","zip_code":"10110","city":"New York","state_code":"NY","country_code":"USA","location":{"type":"Point","coordinates":[-73.981237,40.753918]}},{"name":"Behind the Burner","category_code":"web","description":"","address1":"500 Fifth Avenue","address2":"12th Floor","zip_code":"10110","city":"New York","state_code":"NY","country_code":"USA","location":{"type":"Point","coordinates":[-73.981237,40.753918]}},{"name":"Mantara","category_code":"software","description":"Headquarters","address1":"215 Park Avenue South","address2":"20th Floor","zip_code":"10003","city":"New York","state_code":"NY","country_code":"USA","location":{"type":"Point","coordinates":[-74.032177,40.726517]}},{"name":"Simply Good Media","category_code":"web","description":"Main Office","address1":"123 Town Sq Pl #683","address2":"","zip_code":"07310","city":"Jersey City","state_code":"NJ","country_code":"USA","location":{"type":"Point","coordinates":[-74.032177,40.726517]}},{"name":"Oddcast","category_code":"web","description":null,"address1":"134 W. 37th Street","address2":"7th Floor","zip_code":"10018","city":"New York","state_code":"NY","country_code":"USA","location":{"type":"Point","coordinates":[-73.988477,40.752325]}},{"name":"PEX Card","category_code":"software","description":"Headquarters","address1":"1375 Broadway","address2":"11th floor","zip_code":"10018","city":"New York","state_code":"NY","country_code":"USA","location":{"type":"Point","coordinates":[-73.987871,40.752539]}},{"name":"Minyanville","category_code":"web","description":"Corporate Headquarters","address1":"257 Park Ave South","address2":"","zip_code":"10010","city":"New York","state_code":"NY","country_code":"USA","location":{"type":"Point","coordinates":[-73.971509,40.755635]}},{"name":"IAC","category_code":"news","description":"HQ","address1":"555 West 18th Street","address2":"","zip_code":"10011","city":"New York","state_code":"NY","country_code":"USA","location":{"type":"Point","coordinates":[-74.007646,40.745172]}},{"name":"Eastmedia","category_code":"mobile","description":"Eastmedia","address1":"144 W. 37th Street","address2":"Suite 6A","zip_code":"10018","city":"New York","state_code":"NY","country_code":"USA","location":{"type":"Point","coordinates":[-73.988676,40.752409]}},{"name":"Stream57","category_code":"software","description":"Stream57 Headquarters","address1":"462 7th Avenue","address2":"","zip_code":"10018","city":"NY","state_code":"NY","country_code":"USA","location":{"type":"Point","coordinates":[-73.99031,40.751969]}},{"name":"LivePerson","category_code":"software","description":"Corporate Office","address1":"475 10th Avenue","address2":"5th Floor","zip_code":"10018","city":"New York","state_code":"NY","country_code":"USA","location":{"type":"Point","coordinates":[-73.99031,40.751969]}},{"name":"Payoneer","category_code":"other","description":"Corporate Headquarters","address1":"410 Park Avenue - 15th Floor","address2":"","zip_code":"10022","city":"New York","state_code":"NY","country_code":"USA","location":{"type":"Point","coordinates":[-73.960717,40.621591]}},{"name":"Vimeo","category_code":"games_video","description":"","address1":"555 W 18th St","address2":"","zip_code":"10011-2822","city":"New York","state_code":"NY","country_code":"USA","location":{"type":"Point","coordinates":[-74.0078293,40.7453721]}},{"name":"Upoc","category_code":"mobile","description":"","address1":"11 West 42nd St","address2":"15th Floor","zip_code":"10036","city":"New York","state_code":"NY","country_code":"USA","location":{"type":"Point","coordinates":[-73.981847,40.7543]}},{"name":"Dada Entertainment","category_code":"mobile","description":"Headquarters","address1":"11 West 42nd Street","address2":"15th Floor","zip_code":"10036","city":"New York","state_code":"NY","country_code":"USA","location":{"type":"Point","coordinates":[-73.981847,40.7543]}},{"name":"Dada Entertainment","category_code":"mobile","description":"Headquarters","address1":"11 West 42nd Street","address2":"15th Floor","zip_code":"10036","city":"New York","state_code":"NY","country_code":"USA","location":{"type":"Point","coordinates":[-73.981847,40.7543]}},{"name":"LineUpNewYork","category_code":"web","description":null,"address1":"1410 Broadway","address2":null,"zip_code":"10018","city":"New York","state_code":"NY","country_code":"USA","location":{"type":"Point","coordinates":[-73.986771,40.753202]}},{"name":"Social Sauce","category_code":"network_hosting","description":"HQ","address1":"213 W. 35th St.","address2":"Suite 806","zip_code":"10001","city":"New York","state_code":"NY","country_code":"USA","location":{"type":"Point","coordinates":[-73.990675,40.752143]}},{"name":"Genesiz","category_code":"ecommerce","description":"Corporate","address1":"213 West 35th Street","address2":"Suite # 1201A","zip_code":"1001","city":"New York","state_code":"NY","country_code":"USA","location":{"type":"Point","coordinates":[-73.990675,40.752143]}},{"name":"Howcast","category_code":"photo_video","description":"New York City","address1":"518 Broadway 2nd Floor","address2":"","zip_code":"10012","city":"New York City","state_code":"NY","country_code":"USA","location":{"type":"Point","coordinates":[-73.889492,40.646166]}},{"name":"Jambo Media","category_code":"games_video","description":"New York Office","address1":"110 West 40th Street","address2":"Suite 604","zip_code":"10018","city":"New York","state_code":"NY","country_code":"USA","location":{"type":"Point","coordinates":[-73.98594,40.753652]}},{"name":"yoonew","category_code":"web","description":null,"address1":"1412 Broadway Suite 1822","address2":null,"zip_code":"10018","city":"New York","state_code":"NY","country_code":"USA","location":{"type":"Point","coordinates":[-73.986557,40.75362]}},{"name":"GoLark","category_code":"web","description":null,"address1":"","address2":null,"zip_code":"10001","city":"","state_code":"NY","country_code":"USA","location":{"type":"Point","coordinates":[-73.996122,40.7508]}},{"name":"iPayStation","category_code":"software","description":"New York Office","address1":"825 Third Avenue","address2":"6th Floor","zip_code":"10022","city":"New York","state_code":"NY","country_code":"USA","location":{"type":"Point","coordinates":[-73.9702711,40.7564786]}},{"name":"ScienCentral","category_code":"other","description":"ScienCentral Inc.","address1":"248 W 35th St.","address2":"17th Floor","zip_code":"10001","city":"New York","state_code":"NY","country_code":"USA","location":{"type":"Point","coordinates":[-73.99211,40.752224]}},{"name":"YEAONAY","category_code":"web","description":"","address1":"127 East 28 Street","address2":"2R","zip_code":"10016","city":"New York","state_code":"NY","country_code":"USA","location":{"type":"Point","coordinates":[-73.9952442,40.751234]}},{"name":"Interpublic Group","category_code":"advertising","description":"","address1":"1114 Avenue of the Americas","address2":"","zip_code":"10036","city":"New York","state_code":"NY","country_code":"USA","location":{"type":"Point","coordinates":[-73.982666,40.754683]}},{"name":"Flugpo","category_code":"web","description":"Main Office","address1":"225 W. 36th Street","address2":"7th floor","zip_code":"10018","city":"New York","state_code":"NY","country_code":"USA","location":{"type":"Point","coordinates":[-73.990557,40.752898]}},{"name":"VectorMAX","category_code":"enterprise","description":"","address1":"","address2":"","zip_code":"11735","city":"2759 WYNSUM AVENUE","state_code":"NY","country_code":"USA","location":{"type":"Point","coordinates":[-74.0406491,40.7172211]}},{"name":"TradingUp Online","category_code":"advertising","description":"","address1":"260 west 35th street","address2":"","zip_code":"10001","city":"New York","state_code":"NY","country_code":"USA","location":{"type":"Point","coordinates":[-73.992544,40.752404]}},{"name":"Peer39","category_code":"advertising","description":"Headquarters","address1":"36 West 25th Street","address2":"2nd Floor","zip_code":"10010","city":"New York","state_code":"NY","country_code":"USA","location":{"type":"Point","coordinates":[-73.980246,40.755446]}},{"name":"Epic Advertising","category_code":null,"description":"World Headquarters","address1":"512 Seventh Avenue","address2":"12th Floor","zip_code":"10018","city":"New York","state_code":"NY","country_code":"USA","location":{"type":"Point","coordinates":[-73.989189,40.753403]}},{"name":"Facebook","category_code":"social","description":"New York","address1":"340 Madison Ave","address2":"","zip_code":"10017","city":"New York","state_code":"NY","country_code":"USA","location":{"type":"Point","coordinates":[-73.9792469,40.7557162]}},{"name":"Heavy","category_code":"web","description":null,"address1":"500 7th Avenue","address2":"17th Floor","zip_code":"10018","city":"New York","state_code":"NY","country_code":"USA","location":{"type":"Point","coordinates":[-73.98962,40.753385]}},{"name":"Generate","category_code":"games_video","description":"New York","address1":"845 3rd Avenue","address2":"6th Floor, Suite 652","zip_code":"10022","city":"New York","state_code":"NY","country_code":"USA","location":{"type":"Point","coordinates":[-73.969821,40.7570972]}},{"name":"Connectiva Systems","category_code":"software","description":"","address1":"19 W44th Street","address2":"Suite 611-12","zip_code":"10036","city":"New York","state_code":"NY","country_code":"USA","location":{"type":"Point","coordinates":[-73.980861,40.755531]}},{"name":"WeMix","category_code":"web","description":"Headquarters","address1":"101 E Cresse","address2":"","zip_code":"08260","city":"Wildood","state_code":"NJ","country_code":"USA","location":{"type":"Point","coordinates":[-73.9815358,40.7554379]}},{"name":"HR Integrations","category_code":"software","description":"New York City","address1":"11 Penn Plaza","address2":"","zip_code":"10011","city":"New York","state_code":"NY","country_code":"USA","location":{"type":"Point","coordinates":[-73.994785,40.752078]}},{"name":"Tech Support 4 NYC","category_code":"consulting","description":"Headquarters","address1":"200 west 39th st","address2":"suite 163","zip_code":"10018","city":"new york","state_code":"NY","country_code":"USA","location":{"type":"Point","coordinates":[-73.9883596,40.754142]}},{"name":"Terra-Gen Power","category_code":"cleantech","description":"New York City Office","address1":"565 Fifth Avenue","address2":"27th Floor","zip_code":"10017","city":"New York","state_code":"NY","country_code":"USA","location":{"type":"Point","coordinates":[-73.9788753,40.7562295]}},{"name":"OpTier","category_code":"analytics","description":"Corporate Headquarters","address1":"350 Fifth Avenue","address2":"Suite 6540","zip_code":"10118","city":"New York","state_code":"NY","country_code":"USA","location":{"type":"Point","coordinates":[-73.985647,40.754937]}},{"name":"FriendsTribe","category_code":"mobile","description":null,"address1":"417 E 57th St. Suite 26B","address2":"","zip_code":"10022","city":"New York","state_code":"NY","country_code":"USA","location":{"type":"Point","coordinates":[-73.96224,40.758006]}},{"name":"MediaMath","category_code":"advertising","description":"Head Office","address1":"1440 Broadway","address2":"21st Floor","zip_code":"10018","city":"New York","state_code":"NY","country_code":"USA","location":{"type":"Point","coordinates":[-73.9763479,40.756799]}},{"name":"CPM Braxis","category_code":"consulting","description":"CPM Braxis","address1":"415 Madison Ave","address2":"14th fl","zip_code":"10017","city":"New York","state_code":"NY","country_code":"USA","location":{"type":"Point","coordinates":[-73.9763479,40.756799]}},{"name":"Worklight","category_code":"mobile","description":"","address1":"12 West 31st Street","address2":"","zip_code":"10001","city":"New York","state_code":"NY","country_code":"USA","location":{"type":"Point","coordinates":[-73.976348,40.756799]}},{"name":"Joost","category_code":"games_video","description":"","address1":"100 5th Ave Fl 6","address2":"","zip_code":"10011-6903","city":"New York","state_code":"NY","country_code":"USA","location":{"type":"Point","coordinates":[-74.0094471,40.7464969]}},{"name":"Film Annex","category_code":"games_video","description":"New York Office","address1":"","address2":"","zip_code":"10011","city":"New York","state_code":"NY","country_code":"USA","location":{"type":"Point","coordinates":[-74.0094471,40.7464969]}},{"name":"Jobulous","category_code":"web","description":"New York","address1":"","address2":"","zip_code":"10011","city":"New York","state_code":"NY","country_code":"USA","location":{"type":"Point","coordinates":[-74.0094471,40.7464969]}},{"name":"SpaceTime","category_code":null,"description":"","address1":"576 Fifth Avenue","address2":"","zip_code":"10036","city":"New York","state_code":"NY","country_code":"USA","location":{"type":"Point","coordinates":[-73.979038,40.756662]}},{"name":"AdSide","category_code":"advertising","description":"Headquarters","address1":"247 West 37th Street","address2":"Suite 602","zip_code":"10018","city":"New York","state_code":"NY","country_code":"USA","location":{"type":"Point","coordinates":[-73.991123,40.753931]}},{"name":"AdSide","category_code":"advertising","description":"Headquarters","address1":"247 West 37th Street","address2":"Suite 602","zip_code":"10018","city":"New York","state_code":"NY","country_code":"USA","location":{"type":"Point","coordinates":[-73.991123,40.753931]}},{"name":"Facilitas","category_code":"web","description":null,"address1":"247 West 37th Street","address2":"","zip_code":"10018","city":"New York","state_code":"NY","country_code":"USA","location":{"type":"Point","coordinates":[-73.991123,40.753931]}},{"name":"CPXi","category_code":"web","description":"Headquarters (NYC)","address1":"1441 Broadway","address2":"18th Floor","zip_code":"10018","city":"New York","state_code":"NY","country_code":"USA","location":{"type":"Point","coordinates":[-73.9869523,40.7550708]}},{"name":"muzu tv","category_code":"web","description":"New York Office","address1":"345 Park Avenue","address2":"17th Floor","zip_code":"10154-0037","city":"New York","state_code":"NY","country_code":"USA","location":{"type":"Point","coordinates":[-73.972321,40.757716]}},{"name":"Bristol-Myers Squibb","category_code":"biotech","description":"HQ","address1":"345 Park Avenue","address2":"","zip_code":"10154","city":"New York","state_code":"NY","country_code":"USA","location":{"type":"Point","coordinates":[-73.972321,40.757716]}},{"name":"Ladies Who Launch","category_code":"public_relations","description":null,"address1":"265 W 37th St","address2":"7th floor","zip_code":"10018","city":"New York","state_code":"NY","country_code":"USA","location":{"type":"Point","coordinates":[-73.991512,40.753877]}},{"name":"My Damn Channel","category_code":"games_video","description":"My Damn Channel, Inc.","address1":"202 W. 40th St.","address2":"16th Floor","zip_code":"10018","city":"New York","state_code":"NY","country_code":"USA","location":{"type":"Point","coordinates":[-73.988543,40.754762]}},{"name":"Unicast","category_code":"advertising","description":"Headquarters","address1":"205 West 39th Street","address2":"16th Floor","zip_code":"10018","city":"New York","state_code":"NY","country_code":"USA","location":{"type":"Point","coordinates":[-73.988834,40.754699]}},{"name":"Unigo","category_code":"education","description":"Unigo","address1":"21 West 46th Street","address2":"6th Floor","zip_code":"10036","city":"New York","state_code":"NY","country_code":"USA","location":{"type":"Point","coordinates":[-73.9793465,40.7568493]}},{"name":"Comodo","category_code":"software","description":"Comodo Group, Inc.","address1":"525 Washington Blvd.,","address2":"","zip_code":"07310","city":"Jersey City","state_code":"NJ","country_code":"USA","location":{"type":"Point","coordinates":[-74.035805,40.726963]}},{"name":"TravelCLICK","category_code":"hospitality","description":"Corporate Headquarters","address1":"7 Times Square","address2":"38th Floor","zip_code":"10036","city":"New York","state_code":"NY","country_code":"USA","location":{"type":"Point","coordinates":[-73.9868495,40.755437]}},{"name":"The Receivables Exchange","category_code":"ecommerce","description":"New York Office","address1":"437 Madison Avenue, 28th Floor","address2":"","zip_code":"10022","city":"New York","state_code":"NY","country_code":"USA","location":{"type":"Point","coordinates":[-73.9752768,40.757651]}},{"name":"ContextMedia","category_code":null,"description":"","address1":"437 Madison Ave","address2":"","zip_code":"","city":"New York","state_code":"NY","country_code":"USA","location":{"type":"Point","coordinates":[-73.9752768,40.757651]}},{"name":"MYSTYLEPOST","category_code":"network_hosting","description":"","address1":"231 W. 39th St","address2":"Suite 905","zip_code":"10018","city":"New York","state_code":"NY","country_code":"USA","location":{"type":"Point","coordinates":[-73.989622,40.754901]}},{"name":"Giant Realm","category_code":"web","description":"HQ","address1":"1156 6th Ave,","address2":"3rd Floor","zip_code":"10036","city":"New York","state_code":"NY","country_code":"USA","location":{"type":"Point","coordinates":[-73.9827553,40.7566658]}},{"name":"Petciety","category_code":"web","description":"Office","address1":"360 West 34th Street","address2":"9E","zip_code":"10001","city":"New York","state_code":"NY","country_code":"USA","location":{"type":"Point","coordinates":[-73.995886,40.753207]}},{"name":"Petciety","category_code":"web","description":"Office","address1":"360 West 34th Street","address2":"9E","zip_code":"10001","city":"New York","state_code":"NY","country_code":"USA","location":{"type":"Point","coordinates":[-73.995886,40.753207]}},{"name":"Finsbury Solutions","category_code":"software","description":"US Office","address1":"545 8th Avenue, Suite 401","address2":"","zip_code":"10018","city":"New York","state_code":"NY","country_code":"USA","location":{"type":"Point","coordinates":[-73.992193,40.75451]}},{"name":"NEHST Studios","category_code":"games_video","description":null,"address1":"545 8th Avenue, Suite 401","address2":"","zip_code":"10018","city":"New York","state_code":"NY","country_code":"USA","location":{"type":"Point","coordinates":[-73.992193,40.75451]}},{"name":"ShopMyCloset","category_code":"ecommerce","description":"","address1":"","address2":"","zip_code":"","city":"","state_code":"NY","country_code":"USA","location":{"type":"Point","coordinates":[-73.986941,40.75604]}},{"name":"Catalyst Resources","category_code":"enterprise","description":"Washington DC Office","address1":"2300 M St NW","address2":"Suite 800","zip_code":"20037","city":"Washington","state_code":"DC","country_code":"USA","location":{"type":"Point","coordinates":[-73.986941,40.75604]}},{"name":"Palyon Medical","category_code":"biotech","description":"Palyon Medical","address1":"250 w 57th Street suite 2707","address2":"","zip_code":"10107","city":"New York","state_code":"NY","country_code":"USA","location":{"type":"Point","coordinates":[-73.986951,40.756054]}},{"name":"Yoostar","category_code":"games_video","description":"Main Office","address1":"","address2":"","zip_code":"","city":"New York","state_code":"NY","country_code":"USA","location":{"type":"Point","coordinates":[-73.986951,40.756054]}},{"name":"Pictela","category_code":"advertising","description":"Pictela New York","address1":"770 Broadway","address2":"","zip_code":"10003","city":"New York","state_code":"NY","country_code":"USA","location":{"type":"Point","coordinates":[-73.986951,40.756054]}},{"name":"Muckety","category_code":"other","description":"","address1":"","address2":"","zip_code":"","city":"New York","state_code":"NY","country_code":"USA","location":{"type":"Point","coordinates":[-73.986951,40.756054]}},{"name":"Wee Web","category_code":"web","description":"","address1":"","address2":"","zip_code":"","city":"New York","state_code":"NY","country_code":"USA","location":{"type":"Point","coordinates":[-73.986951,40.756054]}},{"name":"The Talk Market","category_code":"ecommerce","description":"","address1":"One Gateway Center, Suite 770","address2":"","zip_code":"07102","city":"New York","state_code":"NY","country_code":"USA","location":{"type":"Point","coordinates":[-73.986951,40.756054]}},{"name":"Healism","category_code":"web","description":"North America HQ","address1":"","address2":"","zip_code":"","city":"New York","state_code":"NY","country_code":"USA","location":{"type":"Point","coordinates":[-73.986951,40.756054]}},{"name":"Medialets","category_code":"advertising","description":"","address1":"","address2":"","zip_code":"","city":"New York","state_code":"NY","country_code":"USA","location":{"type":"Point","coordinates":[-73.986951,40.756054]}},{"name":"Papervitamins","category_code":"web","description":"USA","address1":"","address2":"","zip_code":"","city":"","state_code":"NY","country_code":"USA","location":{"type":"Point","coordinates":[-73.986951,40.756054]}},{"name":"Papervitamins","category_code":"web","description":"USA","address1":"","address2":"","zip_code":"","city":"","state_code":"NY","country_code":"USA","location":{"type":"Point","coordinates":[-73.986951,40.756054]}},{"name":"Livekick","category_code":"web","description":"","address1":"","address2":"","zip_code":"","city":"New York","state_code":"NY","country_code":"USA","location":{"type":"Point","coordinates":[-73.986951,40.756054]}},{"name":"Fotohoo","category_code":"games_video","description":"New York Office","address1":"","address2":"","zip_code":"","city":"New York","state_code":null,"country_code":"USA","location":{"type":"Point","coordinates":[-73.986951,40.756054]}},{"name":"Dragonfly","category_code":"web","description":"","address1":"","address2":"","zip_code":"","city":"New York","state_code":"NY","country_code":"USA","location":{"type":"Point","coordinates":[-73.986951,40.756054]}},{"name":"artandseek","category_code":"other","description":"Headquarters","address1":"","address2":"","zip_code":"","city":"New York","state_code":"NY","country_code":"USA","location":{"type":"Point","coordinates":[-73.986951,40.756054]}},{"name":"CPower","category_code":"cleantech","description":"HQ","address1":"17 State Street","address2":"19th floor, Suite 1910","zip_code":"10004","city":"New York","state_code":"NY","country_code":"USA","location":{"type":"Point","coordinates":[-73.986951,40.756054]}},{"name":"GameGround","category_code":"games_video","description":"HQ","address1":"","address2":"","zip_code":"","city":"New York","state_code":"NY","country_code":"USA","location":{"type":"Point","coordinates":[-73.986951,40.756054]}},{"name":"Odiogo","category_code":"mobile","description":"New York","address1":"","address2":"","zip_code":"","city":"New York","state_code":"NY","country_code":"USA","location":{"type":"Point","coordinates":[-73.986951,40.756054]}},{"name":"People Capital","category_code":"web","description":"Headquarters","address1":"","address2":"","zip_code":"","city":"New York","state_code":"NY","country_code":"USA","location":{"type":"Point","coordinates":[-73.986951,40.756054]}},{"name":"artandseek","category_code":"other","description":"Headquarters","address1":"","address2":"","zip_code":"","city":"New York","state_code":"NY","country_code":"USA","location":{"type":"Point","coordinates":[-73.986951,40.756054]}},{"name":"UniversityJunction","category_code":"other","description":"","address1":"","address2":"","zip_code":"","city":"New York","state_code":"NY","country_code":"USA","location":{"type":"Point","coordinates":[-73.986951,40.756054]}},{"name":"bTrendie","category_code":"ecommerce","description":"New York","address1":"","address2":"","zip_code":"","city":"","state_code":"NY","country_code":"USA","location":{"type":"Point","coordinates":[-73.986951,40.756054]}},{"name":"Arisey","category_code":"advertising","description":"","address1":"","address2":"","zip_code":"","city":"New York","state_code":"NY","country_code":"USA","location":{"type":"Point","coordinates":[-73.986951,40.756054]}},{"name":"RefSeek","category_code":"search","description":"RefSeek","address1":"","address2":"","zip_code":"","city":"New York","state_code":"NY","country_code":"USA","location":{"type":"Point","coordinates":[-73.986951,40.756054]}},{"name":"famebook","category_code":"web","description":"JFK","address1":"","address2":"","zip_code":"","city":"","state_code":"NY","country_code":"USA","location":{"type":"Point","coordinates":[-73.986951,40.756054]}},{"name":"Primospot","category_code":"other","description":"","address1":"","address2":"","zip_code":"","city":"New York","state_code":"NY","country_code":"USA","location":{"type":"Point","coordinates":[-73.986951,40.756054]}},{"name":"Hirshorn Zuckerman Design Group","category_code":"advertising","description":"","address1":"","address2":"","zip_code":"","city":"New York","state_code":"NY","country_code":"USA","location":{"type":"Point","coordinates":[-73.986951,40.756054]}},{"name":"Conversition","category_code":"web","description":"HQ","address1":"","address2":"","zip_code":"","city":"New York City","state_code":"NY","country_code":"USA","location":{"type":"Point","coordinates":[-73.986951,40.756054]}},{"name":"PlaceVine","category_code":"advertising","description":"","address1":"","address2":"","zip_code":"","city":"New York","state_code":"NY","country_code":"USA","location":{"type":"Point","coordinates":[-73.986951,40.756054]}},{"name":"VSC Consulting","category_code":"public_relations","description":"New York","address1":"","address2":"","zip_code":"","city":"","state_code":"NY","country_code":"USA","location":{"type":"Point","coordinates":[-73.986951,40.756054]}},{"name":"Delivr","category_code":"advertising","description":"","address1":"","address2":"","zip_code":"","city":"New York","state_code":null,"country_code":"USA","location":{"type":"Point","coordinates":[-73.986951,40.756054]}},{"name":"Udorse","category_code":"web","description":"","address1":"","address2":"","zip_code":"","city":"New York","state_code":"NY","country_code":"USA","location":{"type":"Point","coordinates":[-73.986951,40.756054]}},{"name":"Lotame","category_code":"advertising","description":"New York Office","address1":"440 Ninth Ave","address2":"18th Floor","zip_code":"10001","city":"New York","state_code":"MD","country_code":"USA","location":{"type":"Point","coordinates":[-73.995487,40.753631]}},{"name":"Xanga","category_code":"web","description":null,"address1":"555 8th Ave.","address2":"21st Floor","zip_code":"10018","city":"New York","state_code":"NY","country_code":"USA","location":{"type":"Point","coordinates":[-73.992152,40.754698]}},{"name":"Zoomabet","category_code":"network_hosting","description":null,"address1":"555 8th Ave., Suite 1903","address2":"","zip_code":"10018","city":"NY","state_code":"NY","country_code":"USA","location":{"type":"Point","coordinates":[-73.992152,40.754698]}},{"name":"Springo","category_code":"web","description":"","address1":"608 5th Avenue","address2":"Suite 300","zip_code":"10020","city":"New York","state_code":"NY","country_code":"USA","location":{"type":"Point","coordinates":[-73.978432,40.758062]}},{"name":"F5 Networks","category_code":"other","description":"New York Office","address1":"424 W. 33rd Street","address2":"Suite 530-550","zip_code":"10001","city":"New York","state_code":"NY","country_code":"USA","location":{"type":"Point","coordinates":[-73.998135,40.75304]}},{"name":"Thomson Reuters","category_code":"public_relations","description":"","address1":"3 Times Square","address2":"","zip_code":"10036","city":"New York","state_code":"NY","country_code":"USA","location":{"type":"Point","coordinates":[-73.9871847,40.7564318]}},{"name":"Thomson Reuters","category_code":"public_relations","description":"","address1":"3 Times Square","address2":"","zip_code":"10036","city":"New York","state_code":"NY","country_code":"USA","location":{"type":"Point","coordinates":[-73.9871847,40.7564318]}},{"name":"XB Labs","category_code":"software","description":"","address1":"589 8th Ave.","address2":"","zip_code":"10018","city":"New York","state_code":"NY","country_code":"USA","location":{"type":"Point","coordinates":[-73.991605,40.755329]}},{"name":"Instablogs","category_code":"network_hosting","description":"New York Office","address1":"2152, Ralph Avenue, #525","address2":"","zip_code":"11234","city":"New York","state_code":"NY","country_code":"USA","location":{"type":"Point","coordinates":[-73.91793,40.625269]}},{"name":"Admeld","category_code":"advertising","description":"Admeld NYC (HQ)","address1":"One Madison Ave","address2":"4th Floor","zip_code":"10010","city":"New York","state_code":"NY","country_code":"USA","location":{"type":"Point","coordinates":[-73.992152,40.755253]}},{"name":"Real Time Content","category_code":"advertising","description":"World Headquarters","address1":"620 Eighth Avenue","address2":"46th Floor","zip_code":"10018","city":"New York","state_code":"NY","country_code":"USA","location":{"type":"Point","coordinates":[-73.990286,40.755959]}},{"name":"ideeli","category_code":"ecommerce","description":"","address1":"620 8th Ave","address2":"45th Floor","zip_code":"10018","city":"New York","state_code":"NY","country_code":"USA","location":{"type":"Point","coordinates":[-73.990396,40.755978]}},{"name":"Wakozi","category_code":"web","description":null,"address1":"325 West 38th Street","address2":"Suite 807","zip_code":"10018","city":"New York City","state_code":"NY","country_code":"USA","location":{"type":"Point","coordinates":[-73.992706,40.755409]}},{"name":"Associated Press","category_code":"other","description":"","address1":"450 W. 33rd St.","address2":"","zip_code":"10001","city":"New York","state_code":"NY","country_code":"USA","location":{"type":"Point","coordinates":[-73.998615,40.7535]}},{"name":"Kiwibox","category_code":"web","description":"","address1":"330 W 38th Street","address2":"Suite 1602","zip_code":"10018","city":"New York","state_code":"NY","country_code":"USA","location":{"type":"Point","coordinates":[-73.9935,40.755243]}},{"name":"Daylife","category_code":"enterprise","description":null,"address1":"444 Broadway, 5th floor","address2":"","zip_code":"10013","city":"New York","state_code":"NY","country_code":"USA","location":{"type":"Point","coordinates":[-73.886452,40.643438]}},{"name":"Velocix","category_code":"games_video","description":"New York Office","address1":"1230 Avenue of the Americas","address2":"","zip_code":"10020","city":"New York","state_code":"NY","country_code":"USA","location":{"type":"Point","coordinates":[-73.980068,40.758504]}},{"name":"MyPRGenie","category_code":"other","description":"New York, NY","address1":"1501 Broadway","address2":"25th Floor","zip_code":"10036","city":"New York","state_code":"NY","country_code":"USA","location":{"type":"Point","coordinates":[-73.986005,40.757375]}},{"name":"Eglue Business Technologies","category_code":"software","description":"Corporate Headquarters","address1":"79 Hudson Street","address2":"","zip_code":"07030","city":"Hoboken","state_code":"NJ","country_code":"USA","location":{"type":"Point","coordinates":[-74.02977,40.736222]}},{"name":"Civolution","category_code":"security","description":"New York Office","address1":"601 W. 26th Street \u00e2\u20ac\u201c Suite 1646","address2":"","zip_code":"10001","city":"New York","state_code":"NY","country_code":"USA","location":{"type":"Point","coordinates":[-74.0061454,40.7510131]}},{"name":"Paramount Pictures","category_code":"games_video","description":"Viacom Headquarters","address1":"1515 Broadway","address2":"","zip_code":"10036","city":"New York","state_code":"NY","country_code":"USA","location":{"type":"Point","coordinates":[-73.9858165,40.7577017]}},{"name":"Warner Music Group","category_code":"other","description":"","address1":"75 Rockefeller Plaza","address2":"","zip_code":"10019","city":"New York","state_code":"NY","country_code":"USA","location":{"type":"Point","coordinates":[-73.9783534,40.7592189]}},{"name":"Aleri","category_code":"software","description":"New York","address1":"75 Rockefeller Plaza, 18th Floor","address2":"","zip_code":"10019","city":"New York","state_code":"NY","country_code":"USA","location":{"type":"Point","coordinates":[-73.9783534,40.7592189]}},{"name":"Viacom","category_code":"web","description":"HQ","address1":"1515 Broadway","address2":"","zip_code":"10036","city":"New York","state_code":"NY","country_code":"USA","location":{"type":"Point","coordinates":[-73.986011,40.757725]}},{"name":"MTV Networks","category_code":"advertising","description":"HQ","address1":"1515 Broadway","address2":"","zip_code":"10036","city":"New York","state_code":"NY","country_code":"USA","location":{"type":"Point","coordinates":[-73.986011,40.757725]}},{"name":"Wists","category_code":"web","description":null,"address1":"","address2":"","zip_code":"","city":"New York City","state_code":"NY","country_code":"USA","location":{"type":"Point","coordinates":[-73.985506,40.757929]}},{"name":"Blog Talk Radio","category_code":"web","description":null,"address1":"","address2":"","zip_code":"","city":"New York","state_code":"NY","country_code":"USA","location":{"type":"Point","coordinates":[-73.985506,40.757929]}},{"name":"Chictini","category_code":"network_hosting","description":null,"address1":"","address2":"","zip_code":"","city":"New York","state_code":"NY","country_code":"USA","location":{"type":"Point","coordinates":[-73.985506,40.757929]}},{"name":"Massify","category_code":"web","description":"","address1":"32 Cooper Square","address2":"Fl2","zip_code":"10003","city":"","state_code":"NY","country_code":"USA","location":{"type":"Point","coordinates":[-73.985506,40.757929]}},{"name":"SnapVillage","category_code":"web","description":null,"address1":null,"address2":null,"zip_code":null,"city":"New York","state_code":"NY","country_code":"USA","location":{"type":"Point","coordinates":[-73.985506,40.757929]}},{"name":"Gamers Media","category_code":"web","description":null,"address1":"","address2":"","zip_code":"","city":"New York","state_code":"NY","country_code":"USA","location":{"type":"Point","coordinates":[-73.985506,40.757929]}},{"name":"UpNext","category_code":"mobile","description":null,"address1":null,"address2":null,"zip_code":null,"city":"New York City","state_code":"NY","country_code":"USA","location":{"type":"Point","coordinates":[-73.985506,40.757929]}},{"name":"Pinch Media","category_code":"software","description":"","address1":"915 Broadway","address2":"Suite 607","zip_code":"10010","city":"New York","state_code":"NY","country_code":"USA","location":{"type":"Point","coordinates":[-73.985506,40.757929]}},{"name":"MyBloop","category_code":"network_hosting","description":null,"address1":"","address2":"","zip_code":"","city":"","state_code":"NY","country_code":"USA","location":{"type":"Point","coordinates":[-73.985506,40.757929]}},{"name":"Tacoda","category_code":"web","description":null,"address1":null,"address2":null,"zip_code":null,"city":"New York","state_code":"NY","country_code":"USA","location":{"type":"Point","coordinates":[-73.985506,40.757929]}},{"name":"Wiredset","category_code":null,"description":null,"address1":"","address2":"","zip_code":"","city":"","state_code":"NY","country_code":"USA","location":{"type":"Point","coordinates":[-73.985506,40.757929]}},{"name":"ConcertAttack","category_code":"games_video","description":null,"address1":"","address2":"","zip_code":"","city":"","state_code":"NY","country_code":"USA","location":{"type":"Point","coordinates":[-73.985506,40.757929]}},{"name":"PeekYou","category_code":"search","description":null,"address1":null,"address2":null,"zip_code":null,"city":"New York","state_code":"NY","country_code":"USA","location":{"type":"Point","coordinates":[-73.985506,40.757929]}},{"name":"Grey Global Group","category_code":null,"description":null,"address1":"","address2":"","zip_code":"","city":"New York City","state_code":"NY","country_code":"USA","location":{"type":"Point","coordinates":[-73.985506,40.757929]}},{"name":"Blogio","category_code":"web","description":null,"address1":"","address2":"","zip_code":"","city":"","state_code":"NY","country_code":"USA","location":{"type":"Point","coordinates":[-73.985506,40.757929]}},{"name":"1938 Media","category_code":null,"description":null,"address1":"","address2":"","zip_code":"","city":"New York","state_code":"NY","country_code":"USA","location":{"type":"Point","coordinates":[-73.985506,40.757929]}},{"name":"Outbrain","category_code":"web","description":"New York","address1":"116 E. 16th Street","address2":"12th Floor","zip_code":"10003","city":"New York City","state_code":"NY","country_code":"USA","location":{"type":"Point","coordinates":[-73.985506,40.757929]}},{"name":"MeetMoi","category_code":"social","description":null,"address1":"","address2":"","zip_code":"","city":"New York City","state_code":"NY","country_code":"USA","location":{"type":"Point","coordinates":[-73.985506,40.757929]}},{"name":"TableXchange","category_code":"ecommerce","description":null,"address1":null,"address2":null,"zip_code":null,"city":"New York City","state_code":"NY","country_code":"USA","location":{"type":"Point","coordinates":[-73.985506,40.757929]}},{"name":"Camlink","category_code":"games_video","description":"","address1":"","address2":"","zip_code":"95032","city":"Los Gatos","state_code":"CA","country_code":"USA","location":{"type":"Point","coordinates":[-73.985506,40.757929]}},{"name":"Upshot Interactive","category_code":"network_hosting","description":null,"address1":"","address2":"","zip_code":"","city":"New York","state_code":"NY","country_code":"USA","location":{"type":"Point","coordinates":[-73.985506,40.757929]}},{"name":"Fotolog","category_code":"network_hosting","description":null,"address1":null,"address2":null,"zip_code":null,"city":"New York","state_code":"NY","country_code":"USA","location":{"type":"Point","coordinates":[-73.985506,40.757929]}},{"name":"Gawker Media","category_code":"games_video","description":"HQ","address1":"210 Elizabeth Street","address2":"Fourth Floor","zip_code":"10012","city":"New York","state_code":"NY","country_code":"USA","location":{"type":"Point","coordinates":[-73.985506,40.757929]}},{"name":"Jango","category_code":"games_video","description":null,"address1":null,"address2":null,"zip_code":null,"city":"New York","state_code":"NY","country_code":"USA","location":{"type":"Point","coordinates":[-73.985506,40.757929]}},{"name":"revlayer","category_code":"advertising","description":null,"address1":null,"address2":null,"zip_code":null,"city":"New York","state_code":"NY","country_code":"USA","location":{"type":"Point","coordinates":[-73.985506,40.757929]}},{"name":"Kidmondo","category_code":"web","description":null,"address1":"","address2":"","zip_code":"","city":"New York","state_code":"NY","country_code":"USA","location":{"type":"Point","coordinates":[-73.985506,40.757929]}},{"name":"Lyquidity","category_code":"software","description":null,"address1":"","address2":"","zip_code":"","city":"New York","state_code":"NY","country_code":"USA","location":{"type":"Point","coordinates":[-73.985506,40.757929]}},{"name":"Reuters","category_code":null,"description":null,"address1":"","address2":"","zip_code":"","city":"New York","state_code":"NY","country_code":"USA","location":{"type":"Point","coordinates":[-73.985506,40.757929]}},{"name":"Clipmarks","category_code":"photo_video","description":null,"address1":null,"address2":null,"zip_code":null,"city":"New York","state_code":"NY","country_code":"USA","location":{"type":"Point","coordinates":[-73.985506,40.757929]}},{"name":"Totspot","category_code":"web","description":null,"address1":"","address2":"","zip_code":"","city":"New York","state_code":"NY","country_code":"USA","location":{"type":"Point","coordinates":[-73.985506,40.757929]}},{"name":"iVillage","category_code":"web","description":null,"address1":null,"address2":null,"zip_code":null,"city":"New  York","state_code":"NY","country_code":"USA","location":{"type":"Point","coordinates":[-73.985506,40.757929]}},{"name":"HyperCalc","category_code":"software","description":null,"address1":"","address2":"","zip_code":"","city":"New York","state_code":"NY","country_code":"USA","location":{"type":"Point","coordinates":[-73.985506,40.757929]}},{"name":"RiverWired","category_code":"network_hosting","description":null,"address1":"","address2":"","zip_code":"","city":"New York","state_code":"NY","country_code":"USA","location":{"type":"Point","coordinates":[-73.985506,40.757929]}},{"name":"Propertyqube","category_code":"ecommerce","description":"HQ","address1":"810 Taylor Ave. N.","address2":"#125","zip_code":"98109","city":"Seattle","state_code":"WA","country_code":"USA","location":{"type":"Point","coordinates":[-73.985506,40.757929]}},{"name":"Visible World","category_code":"advertising","description":"Headquarters","address1":"460 W. 34th St. Floor 14","address2":"","zip_code":"10001","city":"New York","state_code":"NY","country_code":"USA","location":{"type":"Point","coordinates":[-73.999003,40.75406]}},{"name":"33Across","category_code":"advertising","description":"","address1":"229 W 28th St.","address2":"12th Fl.","zip_code":"10001","city":"New York","state_code":"NY","country_code":"USA","location":{"type":"Point","coordinates":[-73.999003,40.75406]}},{"name":"Wall Street Journal","category_code":null,"description":"Wall Street Journal","address1":"1211 Avenue of the Americas","address2":"","zip_code":"10036","city":"New York","state_code":"NY","country_code":"USA","location":{"type":"Point","coordinates":[-73.9824129,40.7587059]}},{"name":"CheetahMail","category_code":"web","description":null,"address1":"29 Broadway, 6th floor","address2":"","zip_code":"10006","city":"New York","state_code":"NY","country_code":"USA","location":{"type":"Point","coordinates":[-73.885878,40.642913]}},{"name":"SEO Expert","category_code":"search","description":"Headquarters","address1":"410 Park Avenue","address2":"15th Floor","zip_code":"10022","city":"New York","state_code":"NY","country_code":"USA","location":{"type":"Point","coordinates":[-73.972262,40.760283]}},{"name":"BlueKai","category_code":"advertising","description":"New York Office","address1":"145 E 57th Street Floor 6","address2":"","zip_code":"10022","city":"New York","state_code":"NY","country_code":"USA","location":{"type":"Point","coordinates":[-73.968441,40.760955]}},{"name":"E*Trade","category_code":"finance","description":null,"address1":"135 East 57th Street","address2":"","zip_code":"10022","city":"New York","state_code":"NY","country_code":"USA","location":{"type":"Point","coordinates":[-73.969237,40.76096]}},{"name":"Exent","category_code":"games_video","description":"Sales & Marketing","address1":"632 W. 28th St.","address2":"8th Floor","zip_code":"10001","city":"New York","state_code":"NY","country_code":"USA","location":{"type":"Point","coordinates":[-74.005568,40.7523796]}},{"name":"SeeToo","category_code":"enterprise","description":"","address1":"","address2":"","zip_code":"","city":"New York","state_code":"NY","country_code":"USA","location":{"type":"Point","coordinates":[-73.996272,40.755861]}},{"name":"Salesconx","category_code":"enterprise","description":"Times Square","address1":"701 Seventh Ave","address2":"9th Floor","zip_code":"10036","city":"New York","state_code":"NY","country_code":"USA","location":{"type":"Point","coordinates":[-73.98459,40.759243]}},{"name":"McKinley Marketing Partners","category_code":"consulting","description":"Northeast Office","address1":"445 Park Avenue","address2":"9th. floor","zip_code":"10022","city":"New York","state_code":"NY","country_code":"USA","location":{"type":"Point","coordinates":[-73.970624,40.7615818]}},{"name":"Americanlisted","category_code":"ecommerce","description":"Americanlisted","address1":"445 Park Avenue","address2":"","zip_code":"10022","city":"New York","state_code":"NY","country_code":"USA","location":{"type":"Point","coordinates":[-73.970624,40.7615818]}},{"name":"Garlik","category_code":"software","description":"Garlik US Office","address1":"445 Park Avenue","address2":"","zip_code":"10022","city":"New York","state_code":"NY","country_code":"USA","location":{"type":"Point","coordinates":[-73.970624,40.7615818]}},{"name":"Magnetic","category_code":"advertising","description":"New York, NY - HQ","address1":"311 W 43rd St","address2":"Suite 1406","zip_code":"10036","city":"New York","state_code":"NY","country_code":"USA","location":{"type":"Point","coordinates":[-73.990152,40.758343]}},{"name":"MindSmack","category_code":"games_video","description":"MindSmack HQ","address1":"311 West 43rd Street","address2":"Penthouse","zip_code":"10036","city":"New York","state_code":"NY","country_code":"USA","location":{"type":"Point","coordinates":[-73.989987,40.758492]}},{"name":"iPerceptions","category_code":"web","description":"","address1":"575 Madison Avenue","address2":"Suite 1006","zip_code":"10022-2511","city":"New York","state_code":"NY","country_code":"USA","location":{"type":"Point","coordinates":[-73.9725773,40.7619759]}},{"name":"Travelzoo","category_code":"web","description":"","address1":"590 Madison Avenue","address2":"37th Floor","zip_code":"10022","city":"New York","state_code":"NY","country_code":"USA","location":{"type":"Point","coordinates":[-73.9723688,40.762251]}},{"name":"SimulScribe","category_code":"web","description":null,"address1":"110 East 59th Street","address2":"","zip_code":"10022","city":"New York","state_code":"NY","country_code":"USA","location":{"type":"Point","coordinates":[-73.969296,40.762673]}},{"name":"NOLOH","category_code":"software","description":"Main Office","address1":"767 Lexington Ave","address2":"","zip_code":"10065","city":"New York","state_code":"NY","country_code":"USA","location":{"type":"Point","coordinates":[-73.9674,40.762975]}},{"name":"MBV","category_code":"other","description":"","address1":"","address2":"","zip_code":"10065","city":"New York","state_code":"NY","country_code":"USA","location":{"type":"Point","coordinates":[-73.9639021,40.763498]}},{"name":"Rhxo Technology Group","category_code":"software","description":"Rhxo Headquarter","address1":"730 Fifth Ave.","address2":"The Crown Building, Suite 916","zip_code":"10019","city":"New York","state_code":"NY","country_code":"USA","location":{"type":"Point","coordinates":[-73.974714,40.762897]}},{"name":"IAmInTown","category_code":"web","description":"Main Office","address1":"66 Willow Ave","address2":"","zip_code":"07030","city":"Hoboken","state_code":"NJ","country_code":"USA","location":{"type":"Point","coordinates":[-74.0348315,40.7370784]}},{"name":"Cellfish","category_code":"web","description":"","address1":"215 Lexington Avenue","address2":"","zip_code":"10016","city":"New York","state_code":"NY","country_code":"USA","location":{"type":"Point","coordinates":[-73.983754,40.761855]}},{"name":"Deloitte","category_code":"consulting","description":"","address1":"1633 Broadway","address2":"","zip_code":"","city":"New York","state_code":"NY","country_code":"USA","location":{"type":"Point","coordinates":[-73.9837603,40.7618675]}},{"name":"TheMarkets","category_code":"web","description":"","address1":"810 Seventh Avenue","address2":"","zip_code":"10019","city":"New York","state_code":"NY","country_code":"USA","location":{"type":"Point","coordinates":[-73.9821315,40.762674]}},{"name":"Hello Travel","category_code":"ecommerce","description":"HQ","address1":"14 E 60th St","address2":"Ste 503","zip_code":"10022-7139","city":"New York","state_code":"NY","country_code":"USA","location":{"type":"Point","coordinates":[-73.971697,40.7642348]}},{"name":"The Company Database","category_code":"web","description":"Headquarters","address1":"667 Madison Avenue","address2":"","zip_code":"10065","city":"New York","state_code":"NY","country_code":"USA","location":{"type":"Point","coordinates":[-73.970266,40.764481]}},{"name":"Notches","category_code":"web","description":"","address1":"84 Bay Ridge Ave","address2":"","zip_code":"11220","city":"Brooklyn","state_code":"NY","country_code":"USA","location":{"type":"Point","coordinates":[-74.0327971,40.6378331]}},{"name":"OgilvyOne","category_code":"consulting","description":"Corporate Headquarters","address1":"309 West 49th Street","address2":"","zip_code":"10019","city":"New York","state_code":"NY","country_code":"USA","location":{"type":"Point","coordinates":[-73.98749,40.762052]}},{"name":"Unison Technologies","category_code":"software","description":"Headquarters","address1":"424 W 33rd Street, Suite 410","address2":"","zip_code":"10001","city":"New York","state_code":"NY","country_code":"USA","location":{"type":"Point","coordinates":[-73.9799007,40.7645772]}},{"name":"Fictionaut","category_code":"games_video","description":"New York","address1":"32-14 42nd St","address2":"","zip_code":"11103","city":"Astoria","state_code":"NY","country_code":"USA","location":{"type":"Point","coordinates":[-73.9161267,40.7597951]}},{"name":"Meck Technology","category_code":"software","description":null,"address1":"560 West 43rd St #6D","address2":"","zip_code":"10036","city":"New York","state_code":"NY","country_code":"USA","location":{"type":"Point","coordinates":[-73.99726,40.76126]}},{"name":"Vroengard Academy","category_code":"games_video","description":null,"address1":"1745 Broadway","address2":"","zip_code":"10019","city":"New York","state_code":"NY","country_code":"USA","location":{"type":"Point","coordinates":[-73.982007,40.765283]}},{"name":"Kidos","category_code":"games_video","description":"Mailing Address","address1":"355 E. 72nd St., Suite 4E","address2":"","zip_code":"10021","city":"New York","state_code":"NY","country_code":"USA","location":{"type":"Point","coordinates":[-73.956599,40.768058]}},{"name":"Kidos","category_code":"games_video","description":"Mailing Address","address1":"355 E. 72nd St., Suite 4E","address2":"","zip_code":"10021","city":"New York","state_code":"NY","country_code":"USA","location":{"type":"Point","coordinates":[-73.956599,40.768058]}},{"name":"Dotsub","category_code":"games_video","description":"","address1":"360 East 72nd St #C3104","address2":"","zip_code":"10021","city":"New York","state_code":"NY","country_code":"USA","location":{"type":"Point","coordinates":[-73.9566761,40.7680901]}},{"name":"South Park Studios","category_code":"games_video","description":null,"address1":"1775 Broadway","address2":"","zip_code":"10019","city":"New York","state_code":"NY","country_code":"USA","location":{"type":"Point","coordinates":[-73.981828,40.766332]}},{"name":"CREOpoint","category_code":"real_estate","description":"NY Office","address1":"1040 First Avenue #343","address2":"","zip_code":"10022","city":"New York","state_code":"NY","country_code":"USA","location":{"type":"Point","coordinates":[-73.956458,40.768618]}},{"name":"CarZen","category_code":"web","description":"","address1":"134 West 29th Street","address2":"Suite 906","zip_code":"10001","city":"New York","state_code":"NY","country_code":"USA","location":{"type":"Point","coordinates":[-73.951865,40.76945]}},{"name":"Sonibyte","category_code":"web","description":"Main Office","address1":"500 East 77th Street","address2":"Suite 1405","zip_code":"","city":"New York","state_code":"NY","country_code":"USA","location":{"type":"Point","coordinates":[-73.950845,40.769466]}},{"name":"Zagat","category_code":"web","description":"Zagat Survey, LLC","address1":"4 Columbus Circle","address2":"","zip_code":"10019","city":"New York City","state_code":"NY","country_code":"USA","location":{"type":"Point","coordinates":[-73.982558,40.76769]}},{"name":"Firm58","category_code":"software","description":"New York Office (Sales)","address1":"","address2":"","zip_code":"","city":"New York","state_code":"NY","country_code":"USA","location":{"type":"Point","coordinates":[-73.988265,40.766734]}},{"name":"Cowrite","category_code":"other","description":"Main office","address1":"330 W. 58th","address2":"#9E","zip_code":"10019","city":"New York","state_code":"NY","country_code":"USA","location":{"type":"Point","coordinates":[-73.9836019,40.7679235]}},{"name":"Vital Juice","category_code":"web","description":"","address1":"423 W. 55th Street,","address2":"10th Floor","zip_code":"10019","city":"New York","state_code":"NY","country_code":"USA","location":{"type":"Point","coordinates":[-73.987951,40.767418]}},{"name":"Executive Intermediary","category_code":"other","description":"","address1":"300 East 75th Street,","address2":"","zip_code":"10021","city":"New York","state_code":"NY","country_code":"USA","location":{"type":"Point","coordinates":[-73.9569115,40.7707439]}},{"name":"Hanger Network In-Home Media","category_code":"advertising","description":"","address1":"1841 Broadway","address2":"3rd Floor","zip_code":"10023","city":"New York","state_code":"NY","country_code":"USA","location":{"type":"Point","coordinates":[-73.982635,40.769375]}},{"name":"WebVet","category_code":"web","description":"","address1":"333 E. 79th St., #1W","address2":"","zip_code":"10075","city":"New York","state_code":"NY","country_code":"USA","location":{"type":"Point","coordinates":[-73.9513502,40.7717776]}},{"name":"Integrate","category_code":"software","description":"Scottsdale HQ","address1":"4900 N. Scottsdale Road","address2":"Suite 4000","zip_code":"85251","city":"Scottsdale","state_code":"AZ","country_code":"USA","location":{"type":"Point","coordinates":[-74.0353787,40.7481039]}},{"name":"Integrate","category_code":"software","description":"Scottsdale HQ","address1":"4900 N. Scottsdale Road","address2":"Suite 4000","zip_code":"85251","city":"Scottsdale","state_code":"AZ","country_code":"USA","location":{"type":"Point","coordinates":[-74.0353787,40.7481039]}},{"name":"Alwayswater","category_code":"web","description":"Alwayswater","address1":"720 Monroe Street","address2":"E306","zip_code":"07030","city":"Hoboken","state_code":"NJ","country_code":"USA","location":{"type":"Point","coordinates":[-74.039011,40.747005]}},{"name":"SuiteMatch","category_code":"web","description":"HQ","address1":"720 Monroe Street","address2":"E306","zip_code":"07030","city":"Hoboken","state_code":"NJ","country_code":"USA","location":{"type":"Point","coordinates":[-74.039011,40.747005]}},{"name":"SuiteMatch","category_code":"web","description":"HQ","address1":"720 Monroe Street","address2":"E306","zip_code":"07030","city":"Hoboken","state_code":"NJ","country_code":"USA","location":{"type":"Point","coordinates":[-74.039011,40.747005]}},{"name":"WiNetworks","category_code":"mobile","description":"HQ","address1":"555 West 57th Street, Suite 1326","address2":"","zip_code":"10019","city":"New York","state_code":"NY","country_code":"USA","location":{"type":"Point","coordinates":[-73.990426,40.770437]}},{"name":"Why Hasn't He?","category_code":"games_video","description":"New York City","address1":"601 W. 57th Street","address2":"","zip_code":"10019","city":"New York City","state_code":"NY","country_code":"USA","location":{"type":"Point","coordinates":[-73.9914834,40.7703479]}},{"name":"ABC News Online","category_code":"web","description":"ABC News","address1":"77 W. 66 St.","address2":"","zip_code":"10023","city":"New York","state_code":"NY","country_code":"USA","location":{"type":"Point","coordinates":[-73.980533,40.77353]}},{"name":"Novologies","category_code":"software","description":"","address1":"","address2":"","zip_code":"11234","city":"Brooklyn","state_code":"NY","country_code":"USA","location":{"type":"Point","coordinates":[-73.910664,40.609762]}},{"name":"Struq","category_code":"advertising","description":"New York HQ","address1":"80th Fifth Avenue Suite 1834,","address2":"","zip_code":"10028","city":"","state_code":"NY","country_code":"USA","location":{"type":"Point","coordinates":[-73.9521468,40.7766412]}},{"name":"OrganizedWisdom","category_code":"other","description":null,"address1":"2000 Broadway","address2":"18th Floor","zip_code":"10023","city":"New York","state_code":"NY","country_code":"USA","location":{"type":"Point","coordinates":[-73.981709,40.775537]}},{"name":"Producteev","category_code":"software","description":"Headquarters","address1":"242W 30th Street","address2":"Suite 501","zip_code":"10001","city":"New York","state_code":"NY","country_code":"USA","location":{"type":"Point","coordinates":[-73.983656,40.775309]}},{"name":"Producteev","category_code":"software","description":"Headquarters","address1":"242W 30th Street","address2":"Suite 501","zip_code":"10001","city":"New York","state_code":"NY","country_code":"USA","location":{"type":"Point","coordinates":[-73.983656,40.775309]}},{"name":"Stemline Therapeutics","category_code":"biotech","description":"","address1":"1675 York Avenue","address2":"Suite 30-E","zip_code":"10128","city":"New York","state_code":"NY","country_code":"USA","location":{"type":"Point","coordinates":[-73.9459335,40.7775647]}},{"name":"Origin Digital","category_code":"games_video","description":"","address1":"1200 Harbor Boulevard","address2":"9th Floor","zip_code":"07086","city":"Weehawken","state_code":"NJ","country_code":"USA","location":{"type":"Point","coordinates":[-74.026033,40.761979]}},{"name":"Princeton Premier","category_code":"network_hosting","description":"Princeton Global Networks","address1":"23-35A Steinway Street","address2":"","zip_code":"11105","city":"Astoria","state_code":"NY","country_code":"USA","location":{"type":"Point","coordinates":[-73.909232,40.7702598]}},{"name":"VideoCustomizer","category_code":"public_relations","description":"New York","address1":"1702","address2":"345 Park Avenue","zip_code":"10154","city":"New York","state_code":"NY","country_code":"USA","location":{"type":"Point","coordinates":[-73.9453758,40.778334]}}]